region,date_witness,date_agent,witness,agent,latitude,longitude,city,country,city_agent,has_weapon,has_hat,has_jacket,behavior
Asia,27/09/1995,13/10/1995,Caleb Jones,Karen Keller MD,40.11583,67.84222,Jizzax,UZ,Samarkand,FALSE,TRUE,TRUE,tense
Asia,12/09/1996,18/09/1996,John Archer,Kelly Barnes,33.37526,74.3092,Rajaori,IN,Kolkata,FALSE,TRUE,TRUE,confessing
Asia,14/10/2005,12/12/2005,Shane Taylor,Laura Parks,14.95472,120.89694,Baliuag,PH,Manila,FALSE,FALSE,TRUE,confessing
Asia,23/12/2014,28/01/2015,Tyler Wilkins,Nicholas Powell,14.46693,75.92694,Davangere,IN,Kolkata,FALSE,TRUE,TRUE,unhappy
Asia,5/07/2003,14/07/2003,Brandon Hernandez,Mackenzie Gilbert,21.34222,71.30633,Kundla,IN,Kolkata,TRUE,TRUE,TRUE,paranoid
Asia,9/08/1988,24/09/1988,Mr. Alex Adkins,Jeremy Mason,6.84019,79.87116,Dehiwala-Mount Lavinia,LK,Colombo,FALSE,TRUE,TRUE,out-of-control
Asia,11/06/2016,14/07/2016,Brittany Mendoza,Samuel Jackson,12.37169,123.62494,Masbate,PH,Manila,FALSE,TRUE,TRUE,lonely
Asia,26/09/2003,15/11/2003,Karen Young,Tanya Conley,15.58552,102.42587,Bua Yai,TH,Bangkok,FALSE,TRUE,TRUE,injured
Asia,14/07/1990,14/07/1990,Jason Shelton,Charlene Mccormick,29.21399,78.95693,Kashipur,IN,Kolkata,FALSE,FALSE,TRUE,friendly
Asia,15/01/2014,12/02/2014,Miranda Leach,Gerald Green,36.53333,136.61667,Nonoichi,JP,Tokyo,FALSE,TRUE,TRUE,talkative
Asia,5/07/2001,20/08/2001,Lisa Harper,Stacey Morris,4.02219,101.02083,Teluk Intan,MY,Kuala Lumpur,FALSE,TRUE,TRUE,oblivious
Asia,13/01/1987,12/02/1987,Carl Green,Darrell Crawford,35.06667,135.21667,Sasayama,JP,Tokyo,FALSE,FALSE,TRUE,lonely
Asia,17/05/1989,13/06/1989,Sean Ward,Mrs. Amy Munoz PhD,31.39547,34.75699,Rahat,IL,Jerusalem,FALSE,FALSE,TRUE,sad
Asia,27/11/1985,28/11/1985,Matthew Livingston,Matthew Brown,10.31672,123.89071,Cebu City,PH,Manila,FALSE,TRUE,TRUE,oblivious
Asia,29/06/2003,4/07/2003,Charles Martinez,Kathryn Martin,41.77583,140.73667,Hakodate,JP,Tokyo,FALSE,FALSE,TRUE,happy
Asia,27/01/2009,15/02/2009,Timothy Frederick,Jerry Collins,31.96258,73.97117,Naushahra Virkan,PK,Karachi,FALSE,FALSE,TRUE,over-complimenting
Asia,24/06/2008,10/08/2008,Justin Jones,Rachel Barnes,33.86419,48.26258,Aleshtar,IR,Tehran,FALSE,FALSE,TRUE,over-complimenting
Asia,11/12/2002,15/12/2002,John Wong,Allen Baker,41.29444,69.67639,Parkent,UZ,Tashkent,FALSE,TRUE,TRUE,scared
Asia,13/05/2018,12/06/2018,Jacqueline Henry,James Dawson,25.75728,75.37991,Deoli,IN,Kolkata,FALSE,TRUE,TRUE,complaining
Asia,2/07/1988,28/07/1988,Cassandra Salazar,Ryan Wilkinson,41.77583,140.73667,Hakodate,JP,Tokyo,FALSE,FALSE,TRUE,happy
Asia,29/06/2011,26/08/2011,Jimmy Mendez,Micheal Thomas,6.33444,124.95278,Tupi,PH,Manila,FALSE,TRUE,TRUE,panicking
Asia,9/12/2006,21/12/2006,Denise Hill,Jasmine Rowland,-6.48167,106.85417,Cibinong,ID,Jakarta,FALSE,TRUE,TRUE,out-of-control
Asia,26/04/1990,19/05/1990,Jennifer Rogers,Michael Tate,55.8736,85.4265,Yashkino,RU,Novokuznetsk,FALSE,TRUE,TRUE,injured
Asia,16/12/2012,7/02/2013,Jessica Blackburn,Julia Cannon,55.54028,89.20083,Sharypovo,RU,Krasnoyarsk,TRUE,TRUE,TRUE,worried
Asia,30/04/2021,6/05/2021,Patrick Nguyen,Leslie Curtis,16.0438,120.4861,Manaoag,PH,Manila,FALSE,TRUE,TRUE,scared
Asia,14/08/2004,22/08/2004,Andrew Ross,Kenneth Barrett,-7.54972,110.71639,Ngemplak,ID,Jakarta,FALSE,FALSE,TRUE,evasive
Asia,26/08/2021,30/08/2021,Jessica Gould,Frank Gutierrez,23.02677,113.13148,Foshan,CN,Shanghai,FALSE,TRUE,TRUE,injured
Asia,9/06/2008,3/07/2008,Amanda Nguyen,Katelyn Garcia,22.10194,85.37752,Barbil,IN,Kolkata,FALSE,TRUE,TRUE,hostile
Asia,19/02/2018,16/04/2018,Stacey Collier,James Anderson,9.82564,78.25795,Tiruppuvanam,IN,Kolkata,FALSE,TRUE,TRUE,out-of-control
Asia,22/08/1994,27/09/1994,Briana Nelson,Jeffrey Graves MD,6.95194,121.96361,Recodo,PH,Manila,FALSE,FALSE,TRUE,lonely
Asia,27/12/1996,24/01/1997,Wendy Trevino,Melissa Ellis,16.0567,103.65309,Roi Et,TH,Bangkok,FALSE,TRUE,TRUE,hostile
Asia,29/01/2004,27/02/2004,Desiree Harper,Sarah Green,40.66482,122.22833,Yingkou,CN,Shanghai,FALSE,FALSE,TRUE,panicking
Asia,28/12/1999,23/01/2000,Amanda Pham,Bethany Chen,10.58806,77.24779,Udumalaippettai,IN,Kolkata,TRUE,FALSE,TRUE,lonely
Asia,23/10/2001,20/11/2001,Jason Humphrey,Belinda Thompson,32.17629,75.06583,Fazilpur,PK,Karachi,FALSE,FALSE,TRUE,silent
Asia,17/09/2014,14/11/2014,Kristi Fox,Melinda Evans,40.78206,72.34424,Andijon,UZ,Tashkent,FALSE,TRUE,FALSE,hostile
Asia,17/10/2012,24/10/2012,Stephanie White,Randy Simmons,21.46527,83.97573,Sambalpur,IN,Kolkata,FALSE,TRUE,TRUE,tense
Asia,19/06/2014,15/08/2014,Travis Dixon,Robert Baird,40.85158,122.74754,Haicheng,CN,Shanghai,FALSE,TRUE,TRUE,out-of-control
Asia,17/06/1986,1/07/1986,Jacqueline Cruz,Kim Dyer,-6.8048,110.8405,Kudus,ID,Jakarta,FALSE,TRUE,TRUE,sad
Asia,19/02/1986,19/03/1986,Robin Melton,Laura Oconnor,25.75728,75.37991,Deoli,IN,Kolkata,FALSE,TRUE,TRUE,friendly
Asia,16/07/1985,1/09/1985,Denise Fisher,Jennifer Cook,55.54028,89.20083,Sharypovo,RU,Krasnoyarsk,FALSE,TRUE,TRUE,friendly
Asia,13/10/1990,30/11/1990,Eric Johnson,Jennifer George,16.06213,76.0586,Hungund,IN,Kolkata,TRUE,TRUE,TRUE,lonely
Asia,14/12/2006,2/02/2007,Charlene Haynes,Jeanette Martinez,16.06213,76.0586,Hungund,IN,Kolkata,FALSE,FALSE,TRUE,complaining
Asia,6/07/1997,1/09/1997,Robert Perez,Jeremy Mason,36.24624,139.07204,Fujioka,JP,Tokyo,FALSE,FALSE,TRUE,complaining
Asia,25/03/1991,18/04/1991,Amber Scott,Elizabeth Cook,25.92493,73.66633,Sojat,IN,Kolkata,FALSE,FALSE,TRUE,injured
Asia,10/01/2002,27/02/2002,Nicholas Thornton,Stephanie Brooks,30.81383,75.16878,Moga,IN,Kolkata,FALSE,TRUE,TRUE,worried
Asia,17/11/1995,18/12/1995,William Robles,Jeanne Green,6.33444,124.95278,Tupi,PH,Manila,FALSE,TRUE,TRUE,silent
Asia,22/02/2017,26/02/2017,Elizabeth Parker,Alison Peterson,10.58806,77.24779,Udumalaippettai,IN,Kolkata,FALSE,FALSE,TRUE,hostile
Asia,14/06/2007,16/06/2007,Thomas Winters,Christopher Morrison,55.75556,60.70278,Ozersk,RU,Yekaterinburg,FALSE,TRUE,TRUE,confessing
Asia,21/01/1986,8/02/1986,Timothy Goodman,Jennifer Hernandez,21.53889,71.57737,Gariadhar,IN,Kolkata,FALSE,TRUE,TRUE,evasive
Asia,26/06/2001,1/08/2001,Brian Graves,Denise Davis,-7.51611,109.05389,Wangon,ID,Jakarta,FALSE,FALSE,TRUE,silent
Asia,18/12/1998,12/01/1999,Crystal Davidson,Brandon Miller,18.51957,73.85535,Pune,IN,Kolkata,TRUE,FALSE,TRUE,accusatory
Asia,26/01/2003,6/02/2003,Kevin King,Reginald Harvey,26.32293,91.00632,Barpeta,IN,Kolkata,FALSE,TRUE,TRUE,unhappy
Asia,5/01/2003,7/01/2003,Justin Flores,Jacqueline Maldonado,41.09822,120.74792,Nanpiao,CN,Shanghai,FALSE,FALSE,TRUE,oblivious
Asia,22/01/1987,3/02/1987,Taylor Jones,Angela Johnson,18.18158,76.03889,Osmanabad,IN,Kolkata,FALSE,TRUE,TRUE,hostile
Asia,2/07/2017,8/08/2017,Larry Turner,Julia Cannon,23.07492,88.28637,Pandua,IN,Kolkata,FALSE,TRUE,TRUE,unhappy
Asia,5/11/2010,8/11/2010,Matthew Gardner,David Murphy,34.86472,117.55417,Zaozhuang,CN,Shanghai,TRUE,TRUE,FALSE,hostile
Asia,30/12/1985,26/02/1986,Eric Flowers,Timothy Davis,36.6009,126.665,Hongseong,KR,Seoul,FALSE,FALSE,TRUE,talkative
Asia,15/02/2014,10/04/2014,Christopher Lawson,Carrie Boone,13.65805,102.56365,Paoy Paet,KH,Phnom Penh,FALSE,TRUE,TRUE,tense
Asia,2/01/1986,11/02/1986,Randy Smith,Brett Wood,53.14657,140.72287,Nikolayevsk-on-Amure,RU,Vladivostok,TRUE,FALSE,TRUE,evasive
Asia,10/07/1994,13/08/1994,Jason Simmons,Christopher Ross,24.28859,116.11768,Meizhou,CN,Shanghai,FALSE,FALSE,TRUE,accusatory
Asia,10/09/1993,2/11/1993,Jon Stokes,Michael Barron,36,139.55722,Okegawa,JP,Tokyo,FALSE,FALSE,TRUE,lonely
Asia,21/05/2012,9/06/2012,Susan Jones,Anna Flores,20.88197,85.83334,Bhuban,IN,Kolkata,FALSE,TRUE,TRUE,over-complimenting
Asia,9/07/2000,2/09/2000,Shelley Aguirre,Steven Lee,31.28092,74.85849,Patti,IN,Kolkata,FALSE,TRUE,TRUE,worried
Asia,29/11/1989,22/12/1989,Ann Hancock,Dean Martinez,3.3285,99.1625,Tebingtinggi,ID,Jakarta,FALSE,FALSE,TRUE,accusatory
Asia,5/03/1986,9/03/1986,Desiree Carpenter,Brian Hickman,14.62578,121.12251,Antipolo,PH,Manila,FALSE,TRUE,TRUE,sad
Asia,16/12/1990,21/01/1991,Catherine Potter,Kaitlyn Booker,-6.48167,106.85417,Cibinong,ID,Jakarta,FALSE,TRUE,TRUE,silent
Asia,1/07/2003,28/08/2003,Sean Massey,Rose Reed,26.32293,91.00632,Barpeta,IN,Kolkata,FALSE,TRUE,TRUE,sad
Asia,7/03/1999,29/03/1999,Jeffrey Griffin,Nicole Adams,16.06213,76.0586,Hungund,IN,Kolkata,TRUE,FALSE,TRUE,hostile
Asia,14/11/2000,9/01/2001,Sherry Liu,Julia Reynolds,51.78771,56.36091,Saraktash,RU,Yekaterinburg,FALSE,FALSE,TRUE,talkative
Asia,13/04/2016,28/05/2016,Luke Parker,Kim Dyer,26.44931,91.61356,Rangia,IN,Kolkata,FALSE,FALSE,TRUE,injured
Asia,3/03/2020,11/04/2020,Gabriella Gordon,Steven Lee,23.29549,113.82465,Licheng,CN,Shanghai,FALSE,FALSE,TRUE,scared
Asia,12/11/1990,24/12/1990,Jennifer Rodriguez,Jane Hall,-1.26753,116.82887,Balikpapan,ID,Makassar,FALSE,TRUE,TRUE,injured
Asia,17/05/2000,30/06/2000,Thomas Oconnell,Brittany Henderson,35.20889,111.73861,Changzhi,CN,Shanghai,FALSE,TRUE,FALSE,scared
Asia,17/08/1993,17/08/1993,Phillip Castro,Shawn Huang,33.78333,114.51667,Wacheng,CN,Shanghai,FALSE,FALSE,TRUE,fleeing
Asia,7/03/2012,28/04/2012,Holly Kelly,Daniel Brown,51.78771,56.36091,Saraktash,RU,Yekaterinburg,FALSE,TRUE,TRUE,hostile
Asia,19/11/2002,26/12/2002,Brittney Hale,Logan Duncan,25.92493,73.66633,Sojat,IN,Kolkata,FALSE,TRUE,TRUE,tense
Asia,14/12/1993,7/01/1994,Barbara Fisher,Shelley Richardson,34.08565,74.80555,Srinagar,IN,Kolkata,FALSE,TRUE,TRUE,complaining
Asia,6/09/2011,13/10/2011,Roy Henry,Theresa Patterson,5.4709,100.24529,Batu Feringgi,MY,Kuala Lumpur,TRUE,FALSE,TRUE,happy
Asia,10/02/2020,16/02/2020,Jordan Sullivan,Adam Smith,56.11281,69.49015,Ishim,RU,Yekaterinburg,TRUE,FALSE,TRUE,hostile
Asia,19/07/2004,4/09/2004,Dennis Rice,Jeffrey Graves MD,36,139.55722,Okegawa,JP,Tokyo,FALSE,FALSE,TRUE,lonely
Asia,11/07/1988,16/08/1988,Melissa May,Angela Strickland,51.78771,56.36091,Saraktash,RU,Yekaterinburg,FALSE,TRUE,TRUE,worried
Asia,11/06/1999,22/06/1999,Stephanie Drake,Donna Mathis,35.8,137.23333,Gero,JP,Tokyo,FALSE,TRUE,TRUE,tense
Asia,8/02/1996,22/02/1996,Charles Lane,Ashley Carr,23.9028,89.11943,Kushtia,BD,Dhaka,FALSE,TRUE,TRUE,insulting
Asia,27/07/2003,16/08/2003,Curtis Rosales,Julie Lopez,22.88783,84.13864,Jashpurnagar,IN,Kolkata,FALSE,FALSE,TRUE,lonely
Asia,1/04/2012,11/04/2012,Taylor Short,Beth Cuevas,17.30858,97.01124,Kyaikto,MM,Yangon,FALSE,TRUE,FALSE,oblivious
Asia,17/10/2013,25/11/2013,James Mejia,Nicholas Rowe,22.83957,91.84128,Manikchari,BD,Dhaka,FALSE,TRUE,TRUE,scared
Asia,4/09/1989,13/10/1989,Jonathan Garcia,Michael Woods,9.82564,78.25795,Tiruppuvanam,IN,Kolkata,FALSE,FALSE,TRUE,tense
Asia,25/05/2003,21/07/2003,Shannon Mcbride,James Whitehead,19.21667,73.08333,Dombivli,IN,Kolkata,FALSE,FALSE,TRUE,unhappy
Asia,19/04/1987,12/06/1987,Michelle Kim,Robert Baird,24.41288,76.56719,Aklera,IN,Kolkata,TRUE,TRUE,TRUE,fleeing
Asia,30/09/1997,28/11/1997,Timothy Yang,Alexis Conway PhD,58.23583,92.48278,Lesosibirsk,RU,Krasnoyarsk,FALSE,TRUE,TRUE,insulting
Asia,4/12/1993,1/01/1994,William Dorsey,Sherry Aguilar,32.87533,71.57118,Daud Khel,PK,Karachi,FALSE,TRUE,TRUE,oblivious
Asia,25/07/1995,4/08/1995,Daniel Williams,Stephen Mills,35.82756,137.95378,Ina,JP,Tokyo,TRUE,FALSE,FALSE,over-complimenting
Asia,3/02/2013,25/03/2013,Marissa Castro,Cristina Reynolds,25.66795,85.83636,Dalsingh Sarai,IN,Kolkata,FALSE,TRUE,TRUE,out-of-control
Asia,20/12/1990,29/12/1990,Elizabeth Bell,Leslie Anderson,23.07492,88.28637,Pandua,IN,Kolkata,FALSE,FALSE,TRUE,insulting
Asia,17/10/2006,12/11/2006,Jennifer Gonzales,William Wood,-7.73379,113.69785,Besuki,ID,Jakarta,FALSE,TRUE,TRUE,out-of-control
Asia,14/07/2011,9/09/2011,Kenneth Montgomery,Lauren Smith,5.90702,116.10146,Donggongon,MY,Kuching,FALSE,FALSE,TRUE,talkative
Asia,12/01/2006,8/03/2006,Gregory Sherman,Kathy Meadows,10.29085,105.75635,Sa Dec,VN,Ho Chi Minh,FALSE,FALSE,TRUE,happy
Asia,9/07/1989,16/07/1989,Veronica Wilkins,Gregory Moore,31.82539,72.54064,Sillanwali,PK,Karachi,FALSE,TRUE,TRUE,injured
Asia,17/03/2020,23/04/2020,Steven Wright,Stacey Morris,25.95533,68.88871,Jhol,PK,Karachi,FALSE,TRUE,TRUE,friendly
Asia,1/12/1989,6/01/1990,Brian Rowe,Kevin Contreras,40.49748,44.7662,Hrazdan,AM,Yerevan,FALSE,TRUE,TRUE,hostile
Asia,15/04/2008,31/05/2008,Dr. Joseph Hernandez,Patricia Perez,10.13361,124.84472,Maasin,PH,Manila,TRUE,TRUE,TRUE,oblivious
Asia,24/05/2021,28/06/2021,Rebecca Hatfield,Daniel Lewis,32.57756,71.52847,Mianwali,PK,Karachi,FALSE,FALSE,TRUE,injured
Asia,8/06/2007,28/06/2007,Christopher Davis,Christine Obrien,26.76628,83.36889,Gorakhpur,IN,Kolkata,TRUE,FALSE,FALSE,worried
Asia,4/08/1989,17/08/1989,Theresa Gomez,Stephen Mills,22.75218,72.68533,Kheda,IN,Kolkata,FALSE,FALSE,TRUE,insulting
Asia,6/01/1990,27/02/1990,Pamela Boyd,Jennifer Swanson,-7.57897,112.23109,Diwek,ID,Jakarta,FALSE,FALSE,TRUE,scared
Asia,19/06/2012,30/07/2012,Albert Contreras,Ashley Carr,29.69221,72.54566,Hasilpur,PK,Karachi,FALSE,TRUE,TRUE,tense
Asia,5/09/2010,1/10/2010,Mr. Tyler Macias,Miranda Lester,6.33444,124.95278,Tupi,PH,Manila,FALSE,TRUE,TRUE,evasive
Asia,14/09/1995,17/10/1995,Michael Phillips,Julia Cannon,38.40917,112.73333,Xinzhou,CN,Shanghai,FALSE,FALSE,TRUE,evasive
Asia,27/08/1987,22/10/1987,Kristi Weaver,Kimberly Gibson,35,136.51667,Komono,JP,Tokyo,FALSE,TRUE,TRUE,fleeing
Asia,23/06/2011,18/08/2011,Bonnie Tate,James Burnett,30.29184,71.67164,Qadirpur Ran,PK,Karachi,FALSE,FALSE,TRUE,friendly
Asia,17/09/1988,26/10/1988,Ashley Cherry DDS,Jeremy Mason,45.47885,133.42825,Lesozavodsk,RU,Vladivostok,FALSE,TRUE,TRUE,confessing
Asia,11/11/2007,1/12/2007,Michael Moody,Kelly Lindsey,43.82634,144.09638,Motomachi,JP,Tokyo,FALSE,FALSE,TRUE,hostile
Asia,21/08/1994,26/08/1994,Dorothy Thompson,Michael Mueller,36.33011,138.89585,Annaka,JP,Tokyo,FALSE,TRUE,TRUE,confessing
Asia,9/12/2019,15/12/2019,John Jackson,Lacey Brown,17.54907,82.85749,Elamanchili,IN,Kolkata,FALSE,TRUE,TRUE,unhappy
Asia,8/01/1993,1/02/1993,Dana Gilbert,Bradley Ewing,35.50056,117.63083,Pingyi,CN,Shanghai,FALSE,TRUE,TRUE,unhappy
Asia,12/04/1994,15/04/1994,Ms. Nancy Miller,Gabrielle Mendez,6.84019,79.87116,Dehiwala-Mount Lavinia,LK,Colombo,FALSE,TRUE,TRUE,complaining
Asia,26/03/2000,4/05/2000,Edwin Reilly,Julian Anderson,35.95664,36.7138,Binnish,SY,Damascus,FALSE,FALSE,TRUE,over-complimenting
Asia,11/07/1996,29/08/1996,Edward Young,Nicole Payne,-6.91806,106.92667,Sukabumi,ID,Jakarta,FALSE,TRUE,TRUE,silent
Asia,4/12/2004,19/12/2004,Joanne Porter,Jennifer Swanson,0.51667,101.44167,Pekanbaru,ID,Jakarta,FALSE,FALSE,TRUE,talkative
Asia,2/09/1998,29/10/1998,Crystal Ward,Victor Tapia,25.95533,68.88871,Jhol,PK,Karachi,FALSE,TRUE,TRUE,complaining
Asia,4/08/2014,21/09/2014,Robert Moore,Stephanie Mcmillan,27.85,112.9,Xiangtan,CN,Shanghai,FALSE,TRUE,TRUE,lonely
Asia,27/12/2003,2/02/2004,Mackenzie Jackson,Shelly Espinoza,-7.01833,107.60389,Pameungpeuk,ID,Jakarta,FALSE,TRUE,TRUE,evasive
Asia,1/09/2002,20/10/2002,Fred Smith,Joshua Moore,22.37066,114.10479,Tsuen Wan,HK,Hong Kong,FALSE,FALSE,TRUE,paranoid
Asia,11/05/2016,12/05/2016,Jasmine Castillo MD,Lauren Johnson,26.44931,91.61356,Rangia,IN,Kolkata,FALSE,FALSE,TRUE,panicking
Asia,21/11/1997,23/12/1997,Kenneth Huffman,Jeremy Mccullough,29.21399,78.95693,Kashipur,IN,Kolkata,FALSE,TRUE,TRUE,happy
Asia,5/05/2006,27/06/2006,John Gomez,Parker Mitchell,25.49043,85.94001,Teghra,IN,Kolkata,FALSE,TRUE,TRUE,silent
Asia,2/06/2005,6/06/2005,Rachael Henderson,Mrs. Kristin Lopez MD,31.71667,73.38333,Sangla Hill,PK,Karachi,FALSE,TRUE,TRUE,oblivious
Asia,28/03/1994,2/04/1994,Robert Salazar,Zachary Hawkins,14.37395,100.48528,Bang Ban,TH,Bangkok,FALSE,TRUE,TRUE,lonely
Asia,22/07/1997,8/09/1997,Brandon Prince,Casey Weber,22.88783,84.13864,Jashpurnagar,IN,Kolkata,FALSE,TRUE,TRUE,happy
Asia,28/06/1985,18/08/1985,Melissa Jackson,Joseph Nguyen,17.30858,97.01124,Kyaikto,MM,Yangon,TRUE,TRUE,TRUE,hostile
Asia,10/12/1987,2/02/1988,Aaron Jones,Tamara Hall,9.3337,122.8637,Santa Catalina,PH,Manila,FALSE,TRUE,FALSE,accusatory
Asia,28/06/2018,6/08/2018,Ian Foster,Micheal Thomas,12.35275,121.06761,San Jose,PH,Manila,FALSE,TRUE,TRUE,out-of-control
Asia,5/01/1997,21/01/1997,Bryan Hughes,Jessica Joseph,0.51667,101.44167,Pekanbaru,ID,Jakarta,TRUE,TRUE,TRUE,happy
Asia,17/07/1988,18/08/1988,Jennifer Miller,Sonia Mcdaniel,32.54278,111.50861,Danjiangkou,CN,Shanghai,TRUE,FALSE,TRUE,injured
Asia,22/05/2004,29/06/2004,Sharon Contreras,Garrett Cook,58.7002,59.4839,Kachkanar,RU,Yekaterinburg,TRUE,FALSE,FALSE,unhappy
Asia,14/06/1996,29/07/1996,Samantha Phillips,Dr. Gregory Gibson,36.24624,139.07204,Fujioka,JP,Tokyo,FALSE,TRUE,TRUE,happy
Asia,12/06/2002,27/07/2002,Sarah Smith,Jane Hall,13.8196,100.04427,Nakhon Pathom,TH,Bangkok,FALSE,TRUE,TRUE,worried
Asia,6/03/1997,16/04/1997,Bryan Smith,Loretta Wood,33.4425,129.96972,Karatsu,JP,Tokyo,FALSE,FALSE,FALSE,injured
Asia,9/04/1989,14/05/1989,Cynthia Gardner,Patricia Edwards,14.64056,104.64992,Kantharalak,TH,Bangkok,FALSE,TRUE,TRUE,silent
Asia,3/07/1990,26/08/1990,Diana Davis,Kristen Peterson,12.97389,123.99333,Sorsogon,PH,Manila,FALSE,FALSE,FALSE,unhappy
Asia,18/01/1996,21/02/1996,Mary Miller,Kimberly Stewart,19.21667,73.08333,Dombivli,IN,Kolkata,TRUE,TRUE,TRUE,lonely
Asia,14/06/2006,28/06/2006,Hannah Pittman,Sarah Reynolds,42.64031,125.51176,Dongfeng,CN,Shanghai,FALSE,TRUE,TRUE,confessing
Asia,30/10/2012,4/11/2012,Barry Garrett,Kathleen Hicks,54.48147,53.47103,Oktyabr‚Äôskiy,RU,Yekaterinburg,FALSE,TRUE,TRUE,complaining
Asia,30/04/2018,17/06/2018,James Adkins,Patricia Edwards,13.65805,102.56365,Paoy Paet,KH,Phnom Penh,FALSE,TRUE,TRUE,insulting
Asia,7/12/1999,12/12/1999,Kelly Chambers,Todd Robinson,38.45598,48.87498,Astara,AZ,Baku,FALSE,TRUE,TRUE,confessing
Asia,16/12/1988,20/12/1988,Cristina Costa,Michael Tate,47.46657,84.87144,Zaysan,KZ,Almaty,FALSE,TRUE,TRUE,complaining
Asia,17/01/1997,24/01/1997,Erin Brown,Ashley Davis,35.85,117.7,Dongdu,CN,Shanghai,FALSE,FALSE,TRUE,hostile
Asia,17/08/2000,11/10/2000,Dana Solomon,Evan Perkins,23.02677,113.13148,Foshan,CN,Shanghai,FALSE,TRUE,TRUE,over-complimenting
Asia,13/09/1996,19/10/1996,Wendy Washington,Kevin Evans,29.38242,70.91106,Alipur,PK,Karachi,FALSE,TRUE,TRUE,friendly
Asia,17/03/2007,3/05/2007,Andre Campbell,Christopher Morris,14.0823,98.19151,Dawei,MM,Yangon,FALSE,FALSE,TRUE,complaining
Asia,10/03/2013,23/04/2013,Dr. Melissa Anderson,Kevin Contreras,36.33011,138.89585,Annaka,JP,Tokyo,FALSE,TRUE,TRUE,tense
Asia,7/01/2019,21/01/2019,Daniel Pham,Rachel Martin,21.34222,71.30633,Kundla,IN,Kolkata,FALSE,FALSE,TRUE,complaining
Asia,20/04/2002,29/04/2002,Kimberly Church,Michael Barron,3.3285,99.1625,Tebingtinggi,ID,Jakarta,FALSE,TRUE,TRUE,accusatory
Asia,26/11/1992,8/12/1992,Andrea Waters,Teresa Sanchez,34.81667,137.4,Toyokawa,JP,Tokyo,FALSE,TRUE,TRUE,injured
Asia,14/12/2004,29/12/2004,Rebecca Haynes,Kevin Contreras,35.30889,139.55028,Kamakura,JP,Tokyo,FALSE,TRUE,FALSE,complaining
Asia,20/07/1991,5/09/1991,Debbie Lewis,Sharon Young,42.64031,125.51176,Dongfeng,CN,Shanghai,FALSE,TRUE,TRUE,oblivious
Asia,28/06/2009,22/07/2009,Daniel Stein,Jessica Conway,36.20389,127.08472,Nonsan,KR,Seoul,FALSE,FALSE,TRUE,scared
Asia,31/01/2011,7/02/2011,Mark Vaughn,Adam Montes,22.75218,72.68533,Kheda,IN,Kolkata,FALSE,TRUE,TRUE,panicking
Asia,26/11/2005,19/01/2006,Benjamin Herring,Nicole Scott,36.24624,139.07204,Fujioka,JP,Tokyo,FALSE,FALSE,TRUE,insulting
Asia,2/10/1997,23/11/1997,Richard Williams,Marie Hernandez,15.58552,102.42587,Bua Yai,TH,Bangkok,FALSE,TRUE,TRUE,out-of-control
Asia,29/09/1993,26/10/1993,Kari Mathis,Sharon Young,14.8361,120.97844,Guyong,PH,Manila,FALSE,TRUE,TRUE,fleeing
Asia,6/07/2008,9/07/2008,Carl May,Nicole Hart,14.66,120.56528,Pilar,PH,Manila,FALSE,FALSE,TRUE,paranoid
Asia,11/08/2017,18/08/2017,Maria Moore,Fernando Davis,10.7375,122.9666,Talisay,PH,Manila,FALSE,FALSE,TRUE,over-complimenting
Asia,31/07/2003,19/09/2003,Michael Owens,Ms. Sheila Campbell MD,19.21667,73.08333,Dombivli,IN,Kolkata,TRUE,TRUE,TRUE,unhappy
Asia,17/09/1989,17/10/1989,Tammy Jackson,Laura Reynolds,-8.43333,114.33333,Muncar,ID,Jakarta,FALSE,TRUE,TRUE,panicking
Asia,8/04/2018,12/05/2018,Blake Park,Jeffrey Johnson,20.88197,85.83334,Bhuban,IN,Kolkata,FALSE,TRUE,TRUE,fleeing
Asia,15/02/2004,24/02/2004,Christopher Copeland,Nicholas Powell,14.0823,98.19151,Dawei,MM,Yangon,FALSE,FALSE,TRUE,injured
Asia,1/02/2020,23/03/2020,Andrea Martin,Robert Maxwell,40.11583,67.84222,Jizzax,UZ,Samarkand,FALSE,FALSE,TRUE,worried
Asia,29/04/2003,21/06/2003,James Graves,Lauren Johnson,21.59983,71.21169,Amreli,IN,Kolkata,FALSE,FALSE,TRUE,friendly
Asia,1/07/2002,17/08/2002,David Clark,Brandy Mendez,10.20898,123.758,Naga,PH,Manila,FALSE,FALSE,TRUE,lonely
Asia,10/03/2003,15/03/2003,Alfred Hernandez,Steven Edwards,24.41288,76.56719,Aklera,IN,Kolkata,FALSE,TRUE,TRUE,out-of-control
Asia,22/05/2014,16/07/2014,Emily Mclaughlin,Kimberly Cooper,36.53333,136.61667,Nonoichi,JP,Tokyo,FALSE,TRUE,TRUE,worried
Asia,26/05/2018,13/06/2018,Courtney Potter,Andrew Miranda,25.66795,85.83636,Dalsingh Sarai,IN,Kolkata,FALSE,TRUE,TRUE,scared
Asia,25/05/1998,9/07/1998,Natalie Hansen,Alan Ford,25.49043,85.94001,Teghra,IN,Kolkata,FALSE,TRUE,TRUE,injured
Asia,26/09/1990,23/10/1990,Nicholas Serrano PhD,Destiny Peterson,23.29549,113.82465,Licheng,CN,Shanghai,FALSE,FALSE,TRUE,complaining
Asia,15/12/2007,23/12/2007,Amber Bradshaw,James Burnett,-3.5403,118.9707,Majene,ID,Makassar,FALSE,TRUE,TRUE,worried
Asia,20/12/1999,22/12/1999,Janet Pratt,Casey Wheeler,35.85,117.7,Dongdu,CN,Shanghai,FALSE,TRUE,TRUE,friendly
Asia,14/10/2012,20/11/2012,Mary Williamson,David Strong,45.75279,130.57211,Boli,CN,Shanghai,FALSE,TRUE,TRUE,happy
Asia,4/11/1989,11/12/1989,Jessica Garza,James Bryant,56.9083,60.8019,Beryozovsky,RU,Yekaterinburg,FALSE,TRUE,FALSE,injured
Asia,3/12/2009,21/01/2010,Tina Mayer,Jose Hunt,34.8825,128.62667,Sinhyeon,KR,Seoul,TRUE,FALSE,TRUE,confessing
Asia,28/12/1998,7/02/1999,Sonya Mccann,Brandy White,36,139.55722,Okegawa,JP,Tokyo,TRUE,FALSE,TRUE,paranoid
Asia,15/09/1998,2/10/1998,Kevin Hammond,Marie Hernandez,6.84019,79.87116,Dehiwala-Mount Lavinia,LK,Colombo,FALSE,TRUE,TRUE,out-of-control
Asia,1/03/2003,9/04/2003,Timothy Watson,Theresa Patterson,36.53333,136.61667,Nonoichi,JP,Tokyo,TRUE,FALSE,TRUE,worried
Asia,5/07/1990,9/07/1990,Melissa Randall,Kari Chandler,-6.8048,110.8405,Kudus,ID,Jakarta,FALSE,TRUE,TRUE,over-complimenting
Asia,5/02/2003,3/03/2003,Debra Lopez,Edward Anderson,-1.26753,116.82887,Balikpapan,ID,Makassar,FALSE,TRUE,TRUE,unhappy
Asia,14/03/2016,11/05/2016,Patricia Bentley,Brittany Burnett,3.3285,99.1625,Tebingtinggi,ID,Jakarta,TRUE,FALSE,TRUE,injured
Asia,24/05/1988,16/06/1988,Chelsea Smith,Joseph Nguyen,53.14657,140.72287,Nikolayevsk-on-Amure,RU,Vladivostok,FALSE,FALSE,TRUE,confessing
Asia,26/12/1997,21/02/1998,Angela Hendrix,David Strong,36.75965,137.36215,Namerikawa,JP,Tokyo,FALSE,TRUE,TRUE,sad
Asia,26/10/1986,24/11/1986,Daniel Wilkinson,Charlene Mccormick,41.09246,45.36561,Qazax,AZ,Baku,FALSE,FALSE,TRUE,panicking
Asia,9/07/1987,23/07/1987,Cody Stein,Karen Weber,36.53333,136.61667,Nonoichi,JP,Tokyo,FALSE,FALSE,TRUE,insulting
Asia,18/12/2014,22/12/2014,Henry Jones,Cathy Durham,23.73333,114.68333,Heyuan,CN,Shanghai,FALSE,TRUE,FALSE,tense
Asia,8/11/2002,6/12/2002,Marie Santos,Scott Nixon,15.46063,99.89166,Thap Than,TH,Bangkok,FALSE,TRUE,TRUE,tense
Asia,11/12/2021,30/12/2021,James Lee,Marie Hernandez,30.35028,112.19028,Jingzhou,CN,Shanghai,FALSE,TRUE,TRUE,tense
Asia,24/02/2018,27/02/2018,Jennifer Jones,Ashley Davis,12.97389,123.99333,Sorsogon,PH,Manila,FALSE,FALSE,FALSE,evasive
Asia,29/05/1994,25/06/1994,Anthony Christian,Dean Martinez,53.30972,83.62389,Novosilikatnyy,RU,Barnaul,FALSE,TRUE,FALSE,friendly
Asia,13/11/2010,23/12/2010,Kelly Myers,Mary Weaver,47.83333,59.6,Shalqar,KZ,Aqtobe,FALSE,TRUE,TRUE,evasive
Asia,11/09/1990,20/10/1990,Rebecca Jones,Leslie Anderson,14.8361,120.97844,Guyong,PH,Manila,FALSE,FALSE,TRUE,scared
Asia,15/06/2000,28/07/2000,Jay Brown,Sarah Reynolds,3.31332,117.59152,Tarakan,ID,Makassar,FALSE,FALSE,FALSE,insulting
Asia,9/09/1988,18/09/1988,Robin Gonzales,Emily Brown,36.24624,139.07204,Fujioka,JP,Tokyo,FALSE,TRUE,TRUE,panicking
Asia,20/09/2005,24/09/2005,Sabrina Duffy,Matthew Young,37.56667,140.11667,Inawashiro,JP,Tokyo,FALSE,FALSE,TRUE,oblivious
Asia,15/06/2021,8/07/2021,Deanna Jarvis,Frank Gutierrez,14.66,120.56528,Pilar,PH,Manila,FALSE,TRUE,TRUE,hostile
Asia,20/08/2004,17/09/2004,Juan Walker,Sarah Reynolds,14.0823,98.19151,Dawei,MM,Yangon,TRUE,TRUE,TRUE,panicking
Asia,16/07/2005,13/09/2005,Peter Cardenas,Gabriel Jones,47.83333,59.6,Shalqar,KZ,Aqtobe,FALSE,FALSE,FALSE,oblivious
Asia,15/01/2013,23/02/2013,Valerie Weeks,Darren Simpson,11.50526,77.23826,Sathyamangalam,IN,Kolkata,FALSE,TRUE,TRUE,confessing
Asia,4/06/2014,14/06/2014,Mark Ward,Matthew Wagner,12.97389,123.99333,Sorsogon,PH,Manila,FALSE,TRUE,TRUE,confessing
Asia,7/11/1997,9/11/1997,Amanda Love,Katelyn Cook,55.8736,85.4265,Yashkino,RU,Novokuznetsk,FALSE,TRUE,FALSE,evasive
Asia,23/02/1994,22/04/1994,Margaret Parker,William Gallagher,-7.0981,109.3243,Randudongkal,ID,Jakarta,TRUE,TRUE,TRUE,talkative
Asia,12/08/2014,9/10/2014,Matthew Webb,Rebecca Snyder MD,58.63667,59.80222,Lesnoy,RU,Yekaterinburg,FALSE,FALSE,TRUE,happy
Asia,7/05/2009,14/05/2009,Allison Smith,Rebecca Rodriguez,23.18,88.58,Aistala,IN,Kolkata,FALSE,FALSE,TRUE,complaining
Asia,31/05/2018,26/07/2018,Tabitha Herman,Destiny Peterson,40.11583,67.84222,Jizzax,UZ,Samarkand,FALSE,FALSE,TRUE,friendly
Asia,15/10/1999,4/11/1999,Scott Anderson,Tanya Conley,23.18,88.58,Aistala,IN,Kolkata,FALSE,TRUE,TRUE,silent
Asia,10/10/2019,24/10/2019,Sarah Hernandez,Mackenzie Gilbert,34.65918,109.22921,Yanliang,CN,Shanghai,FALSE,TRUE,TRUE,paranoid
Asia,31/05/1995,14/06/1995,Cody Nelson,Lisa Sweeney,6.9909,79.883,Hendala,LK,Colombo,FALSE,FALSE,TRUE,lonely
Asia,8/12/2014,12/12/2014,Claudia Woods,Sarah Reynolds,15.72892,120.57224,Burgos,PH,Manila,FALSE,FALSE,TRUE,out-of-control
Asia,12/04/2007,27/05/2007,Marcus Long,Jimmy Patel,24.28859,116.11768,Meizhou,CN,Shanghai,FALSE,FALSE,TRUE,over-complimenting
Asia,4/03/1994,24/03/1994,Olivia Gonzalez,Larry Braun,37.1759,128.9889,T‚Äôaebaek,KR,Seoul,FALSE,FALSE,FALSE,complaining
Asia,5/08/2000,10/08/2000,Natasha Patterson,Brian Haas,37.65639,126.835,Goyang-si,KR,Seoul,FALSE,TRUE,TRUE,tense
Asia,8/02/2004,14/03/2004,Wendy Terry,Karen Nguyen,36.75965,137.36215,Namerikawa,JP,Tokyo,TRUE,FALSE,TRUE,tense
Asia,20/01/2001,6/03/2001,Rachel Hamilton,Meghan Owens,33.86419,48.26258,Aleshtar,IR,Tehran,FALSE,TRUE,TRUE,silent
Asia,13/12/2002,17/01/2003,Chad Jackson,Timothy Maldonado,14.0823,98.19151,Dawei,MM,Yangon,FALSE,TRUE,TRUE,sad
Asia,16/01/2016,4/03/2016,Michael Rodriguez,Mr. Frederick Bryant,16.0438,120.4861,Manaoag,PH,Manila,FALSE,FALSE,TRUE,complaining
Asia,15/09/2004,25/10/2004,Ronald Carter,Regina Henderson,6.33444,124.95278,Tupi,PH,Manila,FALSE,FALSE,TRUE,unhappy
Asia,29/12/1993,7/01/1994,Felicia Beltran,Adam Montes,23.5654,119.58627,Magong,TW,Taipei,FALSE,TRUE,TRUE,evasive
Asia,14/10/2009,7/11/2009,Mason Ramirez,John Turner,38.40917,112.73333,Xinzhou,CN,Shanghai,FALSE,FALSE,TRUE,scared
Asia,6/03/2016,7/04/2016,Kevin Cruz,Kimberly Cooper,33.86419,48.26258,Aleshtar,IR,Tehran,FALSE,TRUE,TRUE,tense
Asia,28/01/2022,9/02/2022,Lisa Chapman,John Wright,27.9247,78.40102,Chharra,IN,Kolkata,FALSE,TRUE,TRUE,oblivious
Asia,22/10/2006,24/10/2006,Kevin Simmons,Angel Payne,10.29085,105.75635,Sa Dec,VN,Ho Chi Minh,FALSE,TRUE,TRUE,hostile
Asia,24/10/1990,1/12/1990,Gina Gibson,David Harrington,32.61603,44.02488,Karbala,IQ,Baghdad,FALSE,TRUE,TRUE,tense
Asia,2/08/1985,23/09/1985,Sharon Hoffman,Billy White,18.87813,72.93924,Uran,IN,Kolkata,FALSE,FALSE,TRUE,happy
Asia,28/10/2001,17/12/2001,James Lucero,Scott Houston,9.57046,76.32756,Kalavoor,IN,Kolkata,TRUE,FALSE,TRUE,accusatory
Asia,29/09/1998,7/11/1998,Terri Mitchell MD,Lauren Smith,30.81383,75.16878,Moga,IN,Kolkata,FALSE,TRUE,TRUE,accusatory
Asia,3/11/2012,6/11/2012,Nancy Reynolds,David Richardson,30.35028,112.19028,Jingzhou,CN,Shanghai,FALSE,TRUE,TRUE,over-complimenting
Asia,16/02/1987,26/02/1987,Alison Pena,Patrick Stephens,33.78333,114.51667,Wacheng,CN,Shanghai,FALSE,FALSE,TRUE,injured
Asia,13/12/2016,22/12/2016,Heidi Mckenzie,Gregory Hanson,26.76628,83.36889,Gorakhpur,IN,Kolkata,FALSE,TRUE,FALSE,happy
Asia,11/10/2006,21/10/2006,James Mathis,Lisa Sweeney,24.28859,116.11768,Meizhou,CN,Shanghai,FALSE,TRUE,TRUE,oblivious
Asia,4/05/2003,28/05/2003,Jennifer Adams,Eugene Brown,25.92127,86.79271,Madhipura,IN,Kolkata,FALSE,TRUE,TRUE,silent
Asia,27/10/1985,18/11/1985,Jason Graham,Steven Edwards,35.06667,135.21667,Sasayama,JP,Tokyo,FALSE,TRUE,FALSE,over-complimenting
Asia,24/06/1986,8/07/1986,Amanda Smith,Gordon Jimenez,25.6439,77.9129,Narwar,IN,Kolkata,FALSE,FALSE,TRUE,talkative
Asia,13/11/1992,2/01/1993,Philip Cooley,James Kennedy,-1.26424,104.09701,Simpang,ID,Jakarta,FALSE,FALSE,TRUE,panicking
Asia,23/06/2001,28/06/2001,Laura Mosley,Dawn Pierce,34.86472,117.55417,Zaozhuang,CN,Shanghai,TRUE,FALSE,FALSE,panicking
Asia,8/11/1999,13/11/1999,William Perez,Jessica Rogers,26.76628,83.36889,Gorakhpur,IN,Kolkata,FALSE,FALSE,TRUE,lonely
Asia,18/10/1988,4/12/1988,Michelle Robbins,Nicholas Powell,30.76468,74.12286,Kanganpur,PK,Karachi,TRUE,FALSE,TRUE,tense
Asia,27/05/1993,6/07/1993,Michael Fields,Ashley Larson,36,139.55722,Okegawa,JP,Tokyo,FALSE,TRUE,TRUE,lonely
Asia,3/06/2001,8/07/2001,Jonathan Contreras DDS,Timothy Williams,40.93333,73,Jalal-Abad,KG,Bishkek,FALSE,TRUE,FALSE,friendly
Asia,26/02/2001,16/04/2001,Rachel Robinson,Karen Weber,40.78206,72.34424,Andijon,UZ,Tashkent,FALSE,TRUE,TRUE,insulting
Asia,15/06/2009,26/06/2009,Nicholas Rivera,Mark Ferguson,25.6439,77.9129,Narwar,IN,Kolkata,FALSE,FALSE,TRUE,tense
Asia,26/12/2006,15/01/2007,Courtney Rodriguez,Alexis Conway PhD,2.2139,102.3278,Kampung Ayer Molek,MY,Kuala Lumpur,FALSE,TRUE,TRUE,unhappy
Asia,14/07/1991,19/07/1991,Brian Williams,Richard Lambert,11.12018,76.11996,Manjeri,IN,Kolkata,FALSE,TRUE,TRUE,oblivious
Asia,26/08/1994,3/10/1994,Lisa Atkinson,Dana Parker,24.81757,84.63445,Rafiganj,IN,Kolkata,FALSE,TRUE,TRUE,unhappy
Asia,3/10/1993,1/12/1993,Mrs. Linda Dean,Ashley Taylor,15.72892,120.57224,Burgos,PH,Manila,FALSE,FALSE,TRUE,silent
Asia,10/02/1989,16/02/1989,Kelly Zhang,Sarah Green,-1.6,103.61667,Jambi City,ID,Jakarta,FALSE,TRUE,TRUE,worried
Asia,1/07/1988,26/07/1988,Joshua Vazquez,Allen Baker,35.64889,117.27583,Sishui,CN,Shanghai,FALSE,TRUE,TRUE,confessing
Asia,27/12/1989,27/12/1989,Kelly Sandoval,Nicole Hinton,9.3337,122.8637,Santa Catalina,PH,Manila,FALSE,FALSE,TRUE,scared
Asia,27/11/1997,1/01/1998,Katherine Jones,Laura Reynolds,41.77583,140.73667,Hakodate,JP,Tokyo,FALSE,TRUE,TRUE,unhappy
Asia,30/11/2013,22/12/2013,Chad Brooks Jr.,Sandra Odonnell,0.51667,101.44167,Pekanbaru,ID,Jakarta,FALSE,FALSE,TRUE,lonely
Asia,17/09/2018,6/10/2018,Kevin Lee,Melinda Soto,15.46063,99.89166,Thap Than,TH,Bangkok,FALSE,TRUE,TRUE,oblivious
Asia,29/07/2020,31/08/2020,James Santos,Karen Keller MD,40.78206,72.34424,Andijon,UZ,Tashkent,FALSE,TRUE,TRUE,panicking
Asia,17/07/2009,6/08/2009,Todd Guerra,Denise Johnson,32.57756,71.52847,Mianwali,PK,Karachi,FALSE,TRUE,TRUE,scared
Asia,22/06/1991,23/06/1991,Ronald Joseph,Garrett Martinez,56.9083,60.8019,Beryozovsky,RU,Yekaterinburg,FALSE,FALSE,TRUE,happy
Asia,7/08/2014,24/09/2014,Roberto Chaney,Kerry Buck,9.57046,76.32756,Kalavoor,IN,Kolkata,FALSE,FALSE,TRUE,injured
Asia,29/04/1992,11/05/1992,Crystal Johnson,Amy Gomez,32.57756,71.52847,Mianwali,PK,Karachi,FALSE,FALSE,TRUE,out-of-control
Asia,18/09/2018,8/11/2018,Debra Hughes,Rebecca Jackson,27.34089,117.4831,Shaowu,CN,Shanghai,FALSE,TRUE,TRUE,friendly
Asia,4/09/1996,20/10/1996,Kimberly Patterson,Anita Gray,15.58552,102.42587,Bua Yai,TH,Bangkok,FALSE,TRUE,TRUE,worried
Asia,5/04/2016,8/04/2016,Alexandra Logan,Richard Reyes,15.72892,120.57224,Burgos,PH,Manila,FALSE,TRUE,TRUE,confessing
Asia,6/03/2007,12/03/2007,Austin Mcgrath,Rebecca Jackson,40.85158,122.74754,Haicheng,CN,Shanghai,FALSE,FALSE,FALSE,friendly
Asia,15/08/2012,7/09/2012,Linda Turner,Sara Chavez,40.49748,44.7662,Hrazdan,AM,Yerevan,FALSE,FALSE,TRUE,insulting
Asia,21/07/1989,8/08/1989,Angelica Johnson,Michael Woods,65.93381,111.4834,Aykhal,RU,Yakutsk,TRUE,TRUE,TRUE,tense
Asia,14/07/1985,11/09/1985,Christopher Jefferson,Hannah Palmer,23.07492,88.28637,Pandua,IN,Kolkata,FALSE,TRUE,TRUE,oblivious
Asia,8/11/1989,30/11/1989,Angel Hutchinson,Charlene Mccormick,25.75728,75.37991,Deoli,IN,Kolkata,FALSE,FALSE,TRUE,lonely
Asia,6/03/1990,3/04/1990,Philip Long,Charlene Mccormick,35.20889,111.73861,Changzhi,CN,Shanghai,FALSE,FALSE,TRUE,complaining
Asia,11/05/1992,29/05/1992,George Mendez,Meredith Gibbs,25.6439,77.9129,Narwar,IN,Kolkata,FALSE,TRUE,TRUE,evasive
Asia,27/04/2020,11/05/2020,Chase Bailey,Maria Tucker,12.37169,123.62494,Masbate,PH,Manila,FALSE,FALSE,TRUE,scared
Asia,20/04/1986,12/06/1986,Miranda Poole,Cynthia Moore,47.46657,84.87144,Zaysan,KZ,Almaty,FALSE,TRUE,TRUE,complaining
Asia,30/06/1989,8/07/1989,Dr. Marissa Hamilton,Maria Tucker,25.87498,86.59611,Saharsa,IN,Kolkata,FALSE,FALSE,TRUE,unhappy
Asia,6/08/2013,19/09/2013,Daniel Rogers,Evan Perkins,34.86472,117.55417,Zaozhuang,CN,Shanghai,FALSE,TRUE,TRUE,injured
Asia,17/04/2016,13/05/2016,Kendra English,Marie Hernandez,35.815,139.6853,Shimotoda,JP,Tokyo,FALSE,FALSE,TRUE,talkative
Asia,1/07/1999,10/07/1999,Ashley Hernandez,Rebecca Rodriguez,6.33444,124.95278,Tupi,PH,Manila,FALSE,TRUE,TRUE,out-of-control
Asia,4/12/2010,31/12/2010,Jill Ford,Laura Reynolds,33.4425,129.96972,Karatsu,JP,Tokyo,FALSE,TRUE,TRUE,unhappy
Asia,24/08/2005,18/09/2005,Nathan Castro,Elizabeth Cooper,58.23583,92.48278,Lesosibirsk,RU,Krasnoyarsk,FALSE,FALSE,TRUE,complaining
Asia,4/02/2002,26/02/2002,Paul Vargas,Nicole Payne,30.24706,115.04814,Huangshi,CN,Shanghai,FALSE,TRUE,TRUE,sad
Asia,29/05/1998,4/07/1998,Stephanie Wilson,Patrick Stephens,16.0438,120.4861,Manaoag,PH,Manila,FALSE,TRUE,TRUE,injured
Asia,28/06/2014,20/07/2014,Morgan Williams,Mr. Shannon Sharp,12.35275,121.06761,San Jose,PH,Manila,FALSE,TRUE,TRUE,happy
Asia,29/04/2019,23/05/2019,Leah Powers,Amy Moore,35.8,137.23333,Gero,JP,Tokyo,FALSE,TRUE,TRUE,happy
Asia,13/08/1996,18/08/1996,Micheal Hernandez,Shelley Sheppard,32.65246,51.67462,Isfahan,IR,Tehran,TRUE,FALSE,FALSE,out-of-control
Asia,26/06/2010,30/06/2010,Michael Miller,Matthew Brown,40.85158,122.74754,Haicheng,CN,Shanghai,FALSE,TRUE,TRUE,unhappy
Asia,9/06/2005,9/06/2005,Daniel Carter,Mr. Shannon Sharp,40.49748,44.7662,Hrazdan,AM,Yerevan,FALSE,TRUE,TRUE,paranoid
Asia,15/01/2009,17/01/2009,Deborah Weaver,David Strong,17.54907,82.85749,Elamanchili,IN,Kolkata,FALSE,TRUE,TRUE,over-complimenting
Asia,20/03/2016,5/05/2016,Kristen Kline,Destiny Peterson,34.8825,128.62667,Sinhyeon,KR,Seoul,FALSE,TRUE,TRUE,unhappy
Asia,1/04/2010,13/05/2010,John Davis,James Whitehead,25.87498,86.59611,Saharsa,IN,Kolkata,FALSE,TRUE,TRUE,injured
Asia,22/06/2019,6/08/2019,Vincent Wood DDS,Leslie Curtis,-6.8048,110.8405,Kudus,ID,Jakarta,FALSE,FALSE,TRUE,panicking
Asia,28/10/1996,18/12/1996,Natalie Compton,James Williams,42.64031,125.51176,Dongfeng,CN,Shanghai,FALSE,TRUE,TRUE,talkative
Asia,3/11/1985,27/12/1985,Ryan Harrell,Wayne Knight,27.9247,78.40102,Chharra,IN,Kolkata,FALSE,TRUE,TRUE,oblivious
Asia,11/09/1996,11/10/1996,Megan Novak,Rebecca Jackson,40.49748,44.7662,Hrazdan,AM,Yerevan,FALSE,TRUE,TRUE,unhappy
Asia,9/11/2007,16/11/2007,Allen Cook,David Wagner,17.34769,78.55757,Lal Bahadur Nagar,IN,Kolkata,FALSE,TRUE,FALSE,fleeing
Asia,31/08/2012,7/09/2012,Ernest Williams,Robert Meyer,35.20889,111.73861,Changzhi,CN,Shanghai,FALSE,TRUE,TRUE,confessing
Asia,21/05/2000,20/06/2000,Kimberly Brown,Jeffrey Johnson,32.87533,71.57118,Daud Khel,PK,Karachi,FALSE,FALSE,TRUE,tense
Asia,16/02/2009,15/04/2009,Deanna Shelton,Theresa Patterson,40.93333,73,Jalal-Abad,KG,Bishkek,FALSE,TRUE,TRUE,silent
Asia,20/08/2020,29/08/2020,Lisa Bailey,Susan Bowers,35.95664,36.7138,Binnish,SY,Damascus,TRUE,TRUE,TRUE,friendly
Asia,26/06/1986,24/07/1986,Richard Douglas,Rachel Martin,15.73628,75.96976,Gajendragarh,IN,Kolkata,TRUE,TRUE,TRUE,complaining
Asia,10/08/1998,21/09/1998,Alexis Duran,Jeanette Martinez,25.92127,86.79271,Madhipura,IN,Kolkata,FALSE,FALSE,TRUE,worried
Asia,19/06/1995,21/06/1995,Nicole Smith,Christine Obrien,11.50526,77.23826,Sathyamangalam,IN,Kolkata,FALSE,TRUE,TRUE,panicking
Asia,7/05/1987,1/06/1987,Lindsay Richmond,Adam Mathis,25.87498,86.59611,Saharsa,IN,Kolkata,FALSE,FALSE,TRUE,happy
Asia,21/04/1999,2/05/1999,Stephanie Wallace,Christopher Bell,32.05971,34.8732,Ganei Tikva,IL,Jerusalem,FALSE,TRUE,TRUE,paranoid
Asia,10/06/1996,26/07/1996,Veronica Gray,Scott Nixon,14.0823,98.19151,Dawei,MM,Yangon,FALSE,TRUE,TRUE,hostile
Asia,26/02/2020,11/04/2020,Amanda Dodson,Michael Riddle,31.82539,72.54064,Sillanwali,PK,Karachi,FALSE,FALSE,TRUE,out-of-control
Asia,3/01/2001,3/03/2001,Kylie Thompson,Brandi Jones,37.73222,115.70111,Hengshui,CN,Shanghai,FALSE,TRUE,TRUE,evasive
Asia,8/10/1998,8/10/1998,Melissa Mann,Brooke Crawford,34.08565,74.80555,Srinagar,IN,Kolkata,FALSE,TRUE,FALSE,insulting
Asia,7/05/2013,7/06/2013,Christopher Taylor,Kim Dyer,25.80565,68.49143,Bhit Shah,PK,Karachi,FALSE,FALSE,TRUE,fleeing
Asia,11/07/1993,5/08/1993,Allen Preston,Victoria Rodriguez,6.25947,102.05461,Tak Bai,TH,Bangkok,FALSE,TRUE,TRUE,insulting
Asia,2/12/2011,31/12/2011,Scott Brooks MD,Holly Chapman,51.82721,107.60627,Ulan-Ude,RU,Irkutsk,FALSE,TRUE,TRUE,out-of-control
Asia,23/01/1995,20/02/1995,Tiffany Clark,Logan Duncan,36.24624,139.07204,Fujioka,JP,Tokyo,FALSE,TRUE,TRUE,lonely
Asia,21/10/2018,9/11/2018,Maria Bass,Mackenzie Gilbert,28.92694,78.23456,Bachhraon,IN,Kolkata,FALSE,TRUE,TRUE,fleeing
Asia,30/04/2006,9/05/2006,Zachary Ruiz,Nicole Hinton,29.69221,72.54566,Hasilpur,PK,Karachi,FALSE,TRUE,TRUE,accusatory
Asia,11/02/1992,1/04/1992,Jared Garza,Matthew Brown,55.54028,89.20083,Sharypovo,RU,Krasnoyarsk,FALSE,TRUE,TRUE,panicking
Asia,25/10/2018,12/11/2018,Justin Cuevas,Ray Hall,5.90702,116.10146,Donggongon,MY,Kuching,TRUE,TRUE,TRUE,accusatory
Asia,14/02/2021,9/03/2021,Kevin Roberts,James Williams,36.75965,137.36215,Namerikawa,JP,Tokyo,TRUE,TRUE,TRUE,silent
Asia,31/07/1993,10/08/1993,Robert Jones,Richard Lambert,-8.99167,125.21972,Maliana,TL,Dili,FALSE,FALSE,TRUE,fleeing
Asia,12/12/1997,14/12/1997,Taylor Navarro,Denise Park,34.85,117.33333,Taozhuang,CN,Shanghai,TRUE,TRUE,TRUE,sad
Asia,3/02/2022,24/03/2022,Nicholas Bird,Robert Arellano,30.76468,74.12286,Kanganpur,PK,Karachi,FALSE,FALSE,TRUE,friendly
Asia,14/10/2013,29/11/2013,Steve Buchanan,Gregory Hanson,36.75965,137.36215,Namerikawa,JP,Tokyo,FALSE,FALSE,TRUE,evasive
Asia,16/06/1988,30/07/1988,Dr. Michelle Jackson,Shelley Bullock,-3.5403,118.9707,Majene,ID,Makassar,FALSE,TRUE,TRUE,sad
Asia,27/02/2009,7/04/2009,Heather Butler,Brian Hickman,14.53767,46.83187,Ataq,YE,Aden,FALSE,TRUE,TRUE,unhappy
Asia,6/04/1986,23/05/1986,Edward Melton,Janice Carroll,56.9083,60.8019,Beryozovsky,RU,Yekaterinburg,FALSE,FALSE,TRUE,insulting
Asia,3/09/1995,18/10/1995,Todd Jackson,Kimberly Cooper,6.33444,124.95278,Tupi,PH,Manila,TRUE,FALSE,TRUE,out-of-control
Asia,25/09/1986,17/10/1986,Tiffany Jordan,Jennifer Shannon,27.0174,49.62251,Al Jubayl,SA,Riyadh,FALSE,FALSE,TRUE,friendly
Asia,26/05/2004,13/07/2004,Mary Rodriguez,Scott Houston,32.65246,51.67462,Isfahan,IR,Tehran,FALSE,TRUE,TRUE,complaining
Asia,6/10/2020,9/11/2020,Wesley Warren,Christopher Baker,25.66795,85.83636,Dalsingh Sarai,IN,Kolkata,FALSE,TRUE,TRUE,confessing
Asia,27/05/2004,14/06/2004,Melissa Jackson,Kelly Lindsey,34.25,135.31667,Iwade,JP,Tokyo,FALSE,TRUE,TRUE,talkative
Asia,18/08/2008,19/09/2008,Anita Robles,Sharon Young,33.37526,74.3092,Rajaori,IN,Kolkata,FALSE,TRUE,TRUE,talkative
Asia,7/10/1991,4/12/1991,Melissa Lambert,Hunter Lee,41.09822,120.74792,Nanpiao,CN,Shanghai,FALSE,TRUE,TRUE,talkative
Asia,9/07/2005,15/07/2005,Julian Matthews,Mr. James Hooper,13.44581,101.18445,Phanat Nikhom,TH,Bangkok,FALSE,TRUE,TRUE,over-complimenting
Asia,25/02/1992,25/02/1992,James Jones,Julie Lopez,31.71667,73.38333,Sangla Hill,PK,Karachi,FALSE,FALSE,TRUE,hostile
Asia,23/04/2005,3/05/2005,Rebecca Lewis,Richard Reyes,38.55632,69.01354,Vahdat,TJ,Dushanbe,FALSE,TRUE,FALSE,insulting
Asia,2/08/2003,19/08/2003,Christy Morrow,Lacey Brown,-1.6,103.61667,Jambi City,ID,Jakarta,FALSE,TRUE,TRUE,silent
Asia,11/01/2018,15/01/2018,Omar Chavez,Nicole Hart,-1.26424,104.09701,Simpang,ID,Jakarta,FALSE,TRUE,TRUE,silent
Asia,26/02/1996,13/03/1996,Dana Lamb,Robert Arellano,9.3337,122.8637,Santa Catalina,PH,Manila,FALSE,FALSE,TRUE,oblivious
Asia,22/03/2003,5/04/2003,Susan Smith,Sarah Green,-7.73379,113.69785,Besuki,ID,Jakarta,FALSE,TRUE,TRUE,injured
Asia,13/12/2001,5/02/2002,Natasha Mooney,Summer Mosley,10.20898,123.758,Naga,PH,Manila,FALSE,FALSE,TRUE,tense
Asia,2/10/2003,12/11/2003,Brian Pena,Rachel Lucas,13.44581,101.18445,Phanat Nikhom,TH,Bangkok,FALSE,TRUE,TRUE,talkative
Asia,20/01/2022,20/03/2022,Tina Long,Jacob Santiago,13.51825,99.95469,Damnoen Saduak,TH,Bangkok,FALSE,FALSE,TRUE,worried
Asia,8/11/2006,2/12/2006,Kerry Russo,Aaron Nguyen,30.76468,74.12286,Kanganpur,PK,Karachi,FALSE,FALSE,TRUE,scared
Asia,18/02/2022,25/02/2022,Wendy Robles,Cynthia Moore,34.56861,105.89333,Beidao,CN,Shanghai,FALSE,FALSE,FALSE,friendly
Asia,11/08/2010,29/08/2010,John Hodges,Christopher Baker,33.78333,114.51667,Wacheng,CN,Shanghai,FALSE,TRUE,FALSE,scared
Asia,15/02/2007,6/04/2007,Caitlin Wagner,Mr. Frederick Bryant,34.86472,117.55417,Zaozhuang,CN,Shanghai,FALSE,FALSE,TRUE,lonely
Asia,9/01/1991,9/03/1991,Marisa Castillo,Meghan Owens,32.55531,76.12647,Chamba,IN,Kolkata,FALSE,TRUE,TRUE,panicking
Asia,5/02/2001,15/02/2001,William Martin,Ray Hall,23.29549,113.82465,Licheng,CN,Shanghai,FALSE,FALSE,FALSE,over-complimenting
Asia,12/12/2003,16/12/2003,James Massey,Crystal Kelly,25.92493,73.66633,Sojat,IN,Kolkata,FALSE,FALSE,TRUE,unhappy
Asia,13/02/1987,22/03/1987,Adam Graham,Annette Barrett,3.31332,117.59152,Tarakan,ID,Makassar,FALSE,TRUE,TRUE,panicking
Asia,29/12/1991,2/01/1992,Megan Gonzales,Christopher Morrison,-6.8048,110.8405,Kudus,ID,Jakarta,TRUE,TRUE,TRUE,insulting
Asia,3/03/2008,16/03/2008,Rachel Ross,Lindsey Hoover,11.50526,77.23826,Sathyamangalam,IN,Kolkata,FALSE,TRUE,TRUE,talkative
Asia,31/10/1993,28/12/1993,Jennifer Zuniga,Chad Chandler,44.85278,65.50917,Kyzylorda,KZ,Qyzylorda,FALSE,TRUE,TRUE,complaining
Asia,22/09/1990,7/11/1990,Jennifer Brown,Evan Perkins,58.23583,92.48278,Lesosibirsk,RU,Krasnoyarsk,FALSE,TRUE,TRUE,injured
Asia,14/11/2005,19/12/2005,Martin Singh,Kaitlyn Booker,45.35,126.28333,Shuangcheng,CN,Shanghai,TRUE,TRUE,TRUE,fleeing
Asia,29/12/1997,26/01/1998,Tyler Miller,Amy Gomez,47.83333,59.6,Shalqar,KZ,Aqtobe,FALSE,FALSE,TRUE,happy
Asia,16/09/2017,13/10/2017,Ernest Meyers,Brian Torres,-7.81667,112.01667,Kediri,ID,Jakarta,FALSE,TRUE,TRUE,silent
Asia,11/02/1994,5/04/1994,Michael Jones DDS,Patricia Edwards,35.85,117.7,Dongdu,CN,Shanghai,FALSE,TRUE,TRUE,out-of-control
Asia,17/04/2005,6/05/2005,Rick Patel,Gregory Hanson,30.24706,115.04814,Huangshi,CN,Shanghai,FALSE,TRUE,TRUE,friendly
Asia,1/10/1987,12/10/1987,Matthew Medina,Shelly Espinoza,37.19723,122.05228,Tianfu,CN,Shanghai,FALSE,TRUE,TRUE,evasive
Asia,25/10/2015,28/10/2015,Kelly Thomas,Michael Barron,32.65246,51.67462,Isfahan,IR,Tehran,FALSE,TRUE,TRUE,talkative
Asia,27/11/2010,19/01/2011,Travis Braun,Stephen Ferguson,14.62072,74.83554,Sirsi,IN,Kolkata,FALSE,TRUE,TRUE,panicking
Asia,31/01/2012,30/03/2012,Scott Johnson,Mallory Wu,22.4711,88.1453,Pujali,IN,Kolkata,FALSE,TRUE,TRUE,scared
Asia,28/10/1999,2/12/1999,Jennifer Burns,Mrs. Kristin Lopez MD,31.92923,34.86563,Ramla,IL,Jerusalem,FALSE,FALSE,TRUE,sad
Asia,15/04/2021,8/05/2021,Gina Summers,Ashley Davis,6.95194,121.96361,Recodo,PH,Manila,TRUE,TRUE,TRUE,out-of-control
Asia,8/07/2016,11/07/2016,Leslie Espinoza,Jerry Stephenson,26.32293,91.00632,Barpeta,IN,Kolkata,FALSE,TRUE,TRUE,sad
Asia,30/04/2003,9/05/2003,Adam Carr,David Woodward,27.52948,68.75915,Khairpur Mir‚Äôs,PK,Karachi,FALSE,TRUE,TRUE,accusatory
Asia,12/08/1998,5/09/1998,Peter Sullivan,David Simmons,29.22254,79.5286,Haldwani,IN,Kolkata,FALSE,TRUE,TRUE,fleeing
Asia,21/01/2014,20/03/2014,Kristi Leon,Melvin Hansen,10.10649,76.35484,Alwaye,IN,Kolkata,FALSE,FALSE,TRUE,talkative
Asia,27/02/2014,25/03/2014,Jared Howard,Rhonda Jones,34.81667,137.4,Toyokawa,JP,Tokyo,FALSE,TRUE,TRUE,fleeing
Asia,3/12/2018,12/01/2019,Jennifer Hawkins,Kathleen Castro,27.92333,118.53333,Pucheng,CN,Shanghai,FALSE,TRUE,TRUE,oblivious
Asia,11/10/2018,2/12/2018,Robert Wade,Courtney Thompson,25.87498,86.59611,Saharsa,IN,Kolkata,FALSE,TRUE,TRUE,accusatory
Asia,24/10/1998,19/12/1998,Isaiah Jackson,Jennifer Swanson,11.93381,79.82979,Puducherry,IN,Kolkata,FALSE,TRUE,TRUE,evasive
Asia,26/07/2016,7/09/2016,Dennis Young,Mallory Wu,39.46667,141.95,Yamada,JP,Tokyo,TRUE,FALSE,TRUE,happy
Asia,15/02/2021,19/02/2021,Megan Rogers,Alexandra Jones,30.76468,74.12286,Kanganpur,PK,Karachi,FALSE,TRUE,TRUE,talkative
Asia,23/01/2018,9/03/2018,Bradley Li,Mark Valenzuela,25.75728,75.37991,Deoli,IN,Kolkata,FALSE,TRUE,TRUE,evasive
Asia,7/10/1999,3/12/1999,Brittney Hodge,Evelyn Hines,16.06213,76.0586,Hungund,IN,Kolkata,FALSE,FALSE,TRUE,friendly
Asia,13/02/2001,9/03/2001,James Walsh,Leslie Curtis,23.02677,113.13148,Foshan,CN,Shanghai,FALSE,TRUE,TRUE,oblivious
Asia,23/05/2007,17/06/2007,David Ford,Jamie Martin,10.29085,105.75635,Sa Dec,VN,Ho Chi Minh,TRUE,TRUE,TRUE,friendly
Asia,14/04/2011,16/05/2011,Paul Bush,Taylor Robinson,22.19303,88.18466,Diamond Harbour,IN,Kolkata,FALSE,TRUE,FALSE,friendly
Asia,30/01/2006,26/03/2006,David Lee,David Woodward,13.51825,99.95469,Damnoen Saduak,TH,Bangkok,FALSE,FALSE,TRUE,tense
Asia,24/03/2005,29/04/2005,Michael Edwards,Michael Tate,36.33011,138.89585,Annaka,JP,Tokyo,FALSE,TRUE,TRUE,confessing
Asia,23/09/1987,5/11/1987,Jessica Brown,Sharon Young,10.12268,77.54372,Periyakulam,IN,Kolkata,FALSE,TRUE,TRUE,happy
Asia,6/01/1991,20/01/1991,Michael Weiss,Kristen Peterson,34.9,137.5,Shinshiro,JP,Tokyo,FALSE,TRUE,TRUE,injured
Asia,21/08/2002,30/09/2002,Kelly Edwards,Cynthia Carr,31.92923,34.86563,Ramla,IL,Jerusalem,FALSE,TRUE,TRUE,out-of-control
Asia,5/02/1997,29/03/1997,Brooke Decker,William Barton,32.57756,71.52847,Mianwali,PK,Karachi,TRUE,TRUE,TRUE,complaining
Asia,23/10/2008,17/11/2008,Larry Chan,Hannah Lindsey,34.5624,38.28402,Tadmur,SY,Damascus,FALSE,TRUE,TRUE,hostile
Asia,2/08/2011,3/09/2011,William Arias,Dawn Pierce,56.11281,69.49015,Ishim,RU,Yekaterinburg,TRUE,TRUE,TRUE,sad
Asia,30/12/1996,10/02/1997,Jason Williams,Mr. James Hooper,16.0438,120.4861,Manaoag,PH,Manila,TRUE,TRUE,TRUE,evasive
Asia,17/10/1985,2/12/1985,Roy Cisneros,Laura Santana,18.87813,72.93924,Uran,IN,Kolkata,FALSE,FALSE,TRUE,sad
Asia,9/09/1995,11/09/1995,Christopher Jones,Mary Scott,12.04161,75.35927,Talipparamba,IN,Kolkata,FALSE,TRUE,TRUE,sad
Asia,15/11/1995,2/01/1996,Adam Johnson,Lauren Johnson,36.21544,65.93249,Sar-e Pul,AF,Kabul,TRUE,TRUE,TRUE,paranoid
Asia,14/12/1989,19/12/1989,Megan Garcia,Hannah Lindsey,47.90771,106.88324,Ulan Bator,MN,Ulaanbaatar,FALSE,TRUE,TRUE,friendly
Asia,30/01/1988,3/02/1988,Timothy Phillips,Shelley Bullock,9.6531,124.3697,Jagna,PH,Manila,FALSE,FALSE,TRUE,silent
Asia,27/04/2014,29/04/2014,Paul Rodriguez,Karen Nguyen,32.61603,44.02488,Karbala,IQ,Baghdad,FALSE,FALSE,TRUE,oblivious
Asia,6/07/2007,15/07/2007,John Stanton Jr.,Jane Hall,19.21667,73.08333,Dombivli,IN,Kolkata,FALSE,FALSE,TRUE,insulting
Asia,11/01/1993,3/02/1993,Robert Chase,Nancy White,-6.48167,106.85417,Cibinong,ID,Jakarta,FALSE,TRUE,FALSE,evasive
Asia,18/12/2000,19/12/2000,Valerie Johnson,Emily Brown,38.45598,48.87498,Astara,AZ,Baku,FALSE,TRUE,TRUE,scared
Asia,19/10/2000,10/11/2000,Brian Osborne,Christina Krause,31.92923,34.86563,Ramla,IL,Jerusalem,FALSE,FALSE,TRUE,worried
Asia,16/08/1985,29/09/1985,Tyler Richards,Jamie Price,33.3213,130.94098,Hita,JP,Tokyo,FALSE,FALSE,TRUE,scared
Asia,12/03/2018,15/04/2018,Misty Bennett,Linda Porter DVM,13.51825,99.95469,Damnoen Saduak,TH,Bangkok,FALSE,FALSE,TRUE,friendly
Asia,9/02/2013,9/02/2013,Melanie Camacho,Michael Woods,55.8736,85.4265,Yashkino,RU,Novokuznetsk,FALSE,TRUE,TRUE,insulting
Asia,2/03/1993,1/04/1993,Sarah Davis,Brian Thomas,23.02677,113.13148,Foshan,CN,Shanghai,FALSE,TRUE,TRUE,friendly
Asia,25/12/1986,12/01/1987,Taylor Krause,Adam Montes,37.1759,128.9889,T‚Äôaebaek,KR,Seoul,FALSE,TRUE,TRUE,happy
Asia,29/06/1989,17/08/1989,Dr. Heidi Harper,Jerry Erickson,16.0567,103.65309,Roi Et,TH,Bangkok,FALSE,TRUE,TRUE,scared
Asia,16/10/1992,7/11/1992,Jorge Lopez,James Burnett,15.46063,99.89166,Thap Than,TH,Bangkok,FALSE,TRUE,TRUE,complaining
Asia,6/01/2015,23/01/2015,Michael Rivera,Misty Young,23.18,88.58,Aistala,IN,Kolkata,FALSE,TRUE,FALSE,friendly
Asia,6/08/2004,29/09/2004,Kim Thomas,Denise Davis,27.0174,49.62251,Al Jubayl,SA,Riyadh,FALSE,FALSE,TRUE,oblivious
Asia,26/11/2000,11/12/2000,Devin Frank,Micheal Thomas,34.86472,117.55417,Zaozhuang,CN,Shanghai,FALSE,FALSE,TRUE,over-complimenting
Asia,11/08/2007,27/08/2007,Karen Stewart,Martin Diaz,39.46667,141.95,Yamada,JP,Tokyo,FALSE,FALSE,TRUE,happy
Asia,12/04/2009,24/05/2009,Robert Powers,Darlene Pitts,38.45598,48.87498,Astara,AZ,Baku,TRUE,TRUE,TRUE,evasive
Asia,12/09/1998,26/09/1998,Kyle Foster,Brandon Miller,41.09822,120.74792,Nanpiao,CN,Shanghai,FALSE,TRUE,TRUE,insulting
Asia,17/11/1989,25/12/1989,Patricia Ryan,Robert Merritt,45.75279,130.57211,Boli,CN,Shanghai,FALSE,TRUE,TRUE,talkative
Asia,14/08/2009,16/09/2009,Amy Cortez,Ashley Carr,36.21544,65.93249,Sar-e Pul,AF,Kabul,FALSE,TRUE,TRUE,unhappy
Asia,18/07/2008,14/09/2008,Lisa Cherry,William Wood,34.8825,128.62667,Sinhyeon,KR,Seoul,FALSE,FALSE,TRUE,happy
Asia,7/10/2020,24/10/2020,Meredith Giles,Kim Dyer,35.8,137.23333,Gero,JP,Tokyo,FALSE,TRUE,TRUE,accusatory
Asia,28/08/2014,14/09/2014,Micheal Pena,Chris Campbell Jr.,55.8736,85.4265,Yashkino,RU,Novokuznetsk,FALSE,TRUE,TRUE,lonely
Asia,25/04/2014,12/05/2014,Brandon Mason,Brian Hickman,36,139.55722,Okegawa,JP,Tokyo,FALSE,FALSE,TRUE,oblivious
Asia,22/12/2018,14/01/2019,Samantha Silva,Ronald Wong PhD,-7.73379,113.69785,Besuki,ID,Jakarta,FALSE,FALSE,TRUE,unhappy
Asia,25/01/2004,27/01/2004,Kelli Parks,Jeffrey Freeman,27.85,112.9,Xiangtan,CN,Shanghai,FALSE,FALSE,TRUE,complaining
Asia,18/12/1990,31/12/1990,Cameron Bond,James Bryant,-7.51611,109.05389,Wangon,ID,Jakarta,FALSE,TRUE,FALSE,sad
Asia,30/11/2005,12/01/2006,Roger Avery,Kathryn Martin,46.08333,122.08333,Ulanhot,CN,Shanghai,FALSE,TRUE,TRUE,injured
Asia,16/04/2020,25/04/2020,Ronald Riley,Karen Weber,36.81667,117.81667,Zhoucun,CN,Shanghai,FALSE,FALSE,TRUE,complaining
Asia,20/07/1996,6/08/1996,Mrs. Michelle Baker,Nicole Scott,31.78336,35.23388,East Jerusalem,PS,Hebron,FALSE,FALSE,TRUE,sad
Asia,30/05/2002,18/07/2002,Andrew Bentley,Alvin Alvarez,41.77583,140.73667,Hakodate,JP,Tokyo,FALSE,FALSE,TRUE,confessing
Asia,25/05/2014,18/07/2014,Christopher Anderson,Logan Duncan,27.52948,68.75915,Khairpur Mir‚Äôs,PK,Karachi,TRUE,FALSE,TRUE,sad
Asia,23/03/2011,10/04/2011,Laura Adkins,Tracy Young,34.4833,136.84186,Toba,JP,Tokyo,TRUE,TRUE,TRUE,hostile
Asia,14/07/1989,28/07/1989,William Mccarthy,Charles Leonard,31.78336,35.23388,East Jerusalem,PS,Hebron,FALSE,FALSE,TRUE,complaining
Asia,4/05/1996,5/05/1996,Henry Morrow,Regina Henderson,41.82143,41.77921,Kobuleti,GE,Tbilisi,FALSE,TRUE,TRUE,insulting
Asia,29/04/2005,7/06/2005,Curtis Jackson,Eddie Hall,36.20389,127.08472,Nonsan,KR,Seoul,FALSE,TRUE,TRUE,happy
Asia,3/10/1999,25/11/1999,Dawn Potter,Nicole Adams,44.85278,65.50917,Kyzylorda,KZ,Qyzylorda,TRUE,TRUE,TRUE,panicking
Asia,25/07/1988,28/07/1988,Alexander Hickman,Crystal Kelly,27.55898,68.21204,Larkana,PK,Karachi,FALSE,FALSE,TRUE,out-of-control
Asia,11/03/1992,1/05/1992,Peter Burns,Justin Whitehead,40.66482,122.22833,Yingkou,CN,Shanghai,TRUE,FALSE,TRUE,confessing
Asia,12/03/2009,13/03/2009,Frank Schwartz,Glenn Li,25.92493,73.66633,Sojat,IN,Kolkata,FALSE,TRUE,TRUE,sad
Asia,26/12/2015,30/01/2016,Kathleen Kennedy,Donna Martin,32.87533,71.57118,Daud Khel,PK,Karachi,FALSE,FALSE,TRUE,worried
Asia,7/04/2006,8/04/2006,Steven Knapp,Jamie Price,38.45598,48.87498,Astara,AZ,Baku,TRUE,TRUE,FALSE,worried
Asia,1/08/1986,24/09/1986,Jacob West,Elizabeth Martinez,8.56697,123.33471,Dipolog,PH,Manila,FALSE,TRUE,FALSE,confessing
Asia,29/07/1993,4/09/1993,Ryan Weeks,Jeanette Martinez,15.58552,102.42587,Bua Yai,TH,Bangkok,FALSE,TRUE,TRUE,fleeing
Asia,11/12/2013,28/01/2014,Eric Walker,Susan Bowers,20.88197,85.83334,Bhuban,IN,Kolkata,FALSE,TRUE,TRUE,out-of-control
Asia,17/02/2008,3/03/2008,Kevin Mccoy,David Murphy,21.53889,71.57737,Gariadhar,IN,Kolkata,FALSE,TRUE,TRUE,complaining
Asia,30/12/2010,23/02/2011,Chelsea Carroll,Stephanie Mcmillan,34.5624,38.28402,Tadmur,SY,Damascus,FALSE,FALSE,TRUE,panicking
Asia,25/09/1995,20/11/1995,Anthony Jefferson,Jeffrey Bush,14.62072,74.83554,Sirsi,IN,Kolkata,FALSE,TRUE,TRUE,scared
Asia,28/12/1985,31/01/1986,Amy Lewis,John Hayes,26.44931,91.61356,Rangia,IN,Kolkata,FALSE,TRUE,TRUE,accusatory
Asia,22/06/2022,22/06/2022,Aaron Ballard,Brooke Crawford,33.4425,129.96972,Karatsu,JP,Tokyo,FALSE,TRUE,TRUE,accusatory
Asia,10/04/2013,7/05/2013,Patricia Obrien,Nicole Hinton,41.29444,69.67639,Parkent,UZ,Tashkent,FALSE,FALSE,FALSE,scared
Asia,17/05/2011,12/07/2011,Charles Mercado,Matthew Young,37.65639,126.835,Goyang-si,KR,Seoul,FALSE,FALSE,TRUE,silent
Asia,7/10/2017,16/11/2017,Matthew Reese,Latasha Norris,4.88441,101.96857,Gua Musang,MY,Kuala Lumpur,FALSE,TRUE,TRUE,silent
Asia,20/09/2010,19/10/2010,Brandon Crawford,Daniel Brown,16.68911,98.50893,Myawadi,MM,Yangon,FALSE,FALSE,TRUE,over-complimenting
Asia,19/12/1994,10/01/1995,Amy Wolfe,James Brock,35.20889,111.73861,Changzhi,CN,Shanghai,FALSE,TRUE,TRUE,talkative
Asia,9/04/1998,24/04/1998,Kayla Brown,Aaron Nguyen,46.08333,122.08333,Ulanhot,CN,Shanghai,FALSE,TRUE,TRUE,worried
Asia,23/04/1992,25/05/1992,David Miller,James Whitehead,16.06213,76.0586,Hungund,IN,Kolkata,FALSE,TRUE,TRUE,happy
Asia,26/10/1992,3/11/1992,Paul Hartman,Valerie Griffin,34.65918,109.22921,Yanliang,CN,Shanghai,FALSE,TRUE,TRUE,happy
Asia,14/01/2011,31/01/2011,Tom Porter,Garrett Allen,32.57756,71.52847,Mianwali,PK,Karachi,FALSE,FALSE,TRUE,friendly
Asia,21/11/2009,24/12/2009,Andrew Johnson,Kathleen Castro,30.46907,70.96699,Kot Addu,PK,Karachi,FALSE,FALSE,TRUE,paranoid
Asia,4/06/2002,9/07/2002,Sara King,Charles Mitchell,32.55531,76.12647,Chamba,IN,Kolkata,FALSE,TRUE,TRUE,injured
Asia,24/10/2012,9/11/2012,Shirley Barker,Holly Chapman,12.35275,121.06761,San Jose,PH,Manila,FALSE,TRUE,TRUE,worried
Asia,4/02/1995,10/02/1995,Mark Duke,Logan Duncan,18.18158,76.03889,Osmanabad,IN,Kolkata,FALSE,FALSE,TRUE,accusatory
Asia,17/05/2015,11/06/2015,Robert Mckenzie,Brian Hickman,22.88783,84.13864,Jashpurnagar,IN,Kolkata,FALSE,FALSE,TRUE,out-of-control
Asia,5/08/1999,26/09/1999,Heather Kelly,Isabel Webb,35.85,117.7,Dongdu,CN,Shanghai,FALSE,TRUE,TRUE,tense
Asia,20/04/2016,4/06/2016,Amy Richardson,Katelyn Garcia,12.04161,75.35927,Talipparamba,IN,Kolkata,FALSE,TRUE,TRUE,panicking
Asia,11/03/1995,19/03/1995,Dr. Jasmine Leonard DVM,Annette Barrett,15.5439,73.7553,Calangute,IN,Kolkata,FALSE,FALSE,TRUE,accusatory
Asia,20/10/2002,23/11/2002,Robin Flores,Joseph Nguyen,34.5624,38.28402,Tadmur,SY,Damascus,FALSE,TRUE,TRUE,tense
Asia,17/10/1998,20/11/1998,Dr. Jeremy Montgomery,Paul Garner,32.17629,75.06583,Fazilpur,PK,Karachi,FALSE,TRUE,TRUE,friendly
Asia,3/02/1991,29/03/1991,Jason Hernandez,Paul Garner,26.32293,91.00632,Barpeta,IN,Kolkata,FALSE,TRUE,TRUE,out-of-control
Asia,12/04/2010,21/05/2010,Kimberly Ray,Casey Wheeler,37.65181,120.33063,Longgang,CN,Shanghai,FALSE,TRUE,TRUE,out-of-control
Asia,26/12/2003,27/01/2004,William Moore,Nicholas Powell,41.09246,45.36561,Qazax,AZ,Baku,FALSE,FALSE,TRUE,out-of-control
Asia,10/09/2015,15/10/2015,Marilyn Price,Valerie Griffin,24.05979,77.40858,Leteri,IN,Kolkata,FALSE,TRUE,FALSE,sad
Asia,11/04/2011,29/04/2011,Dr. Joseph Pena,Theresa Patterson,51.78771,56.36091,Saraktash,RU,Yekaterinburg,FALSE,FALSE,TRUE,confessing
Asia,3/12/1995,26/01/1996,Erin Blackwell,Kenneth Gutierrez,12.97389,123.99333,Sorsogon,PH,Manila,FALSE,FALSE,TRUE,injured
Asia,5/03/2006,20/03/2006,Jonathan Wagner,Natalie Jordan,1.6,103.81667,Ulu Tiram,MY,Kuala Lumpur,FALSE,FALSE,FALSE,scared
Asia,18/11/2018,17/12/2018,Holly Andersen,Deborah Holden,36.19278,117.65694,Laiwu,CN,Shanghai,FALSE,FALSE,TRUE,injured
Asia,15/01/1997,19/02/1997,Michael Hill,Wesley Horton,6.25947,102.05461,Tak Bai,TH,Bangkok,FALSE,TRUE,TRUE,sad
Asia,4/09/1987,2/11/1987,Charles Lawson,Jennifer Hoffman,32.65246,51.67462,Isfahan,IR,Tehran,FALSE,TRUE,TRUE,injured
Asia,15/12/2019,5/01/2020,Christina Brooks,Jessica Rogers,41.09822,120.74792,Nanpiao,CN,Shanghai,FALSE,FALSE,TRUE,lonely
Asia,14/04/2013,3/05/2013,Tracy Silva,Linda Finley,41.09822,120.74792,Nanpiao,CN,Shanghai,FALSE,FALSE,TRUE,worried
Asia,14/05/2003,11/07/2003,Dr. Felicia Foster,Matthew Wagner,13.65805,102.56365,Paoy Paet,KH,Phnom Penh,FALSE,FALSE,TRUE,complaining
Asia,6/07/2015,8/08/2015,Kimberly Rodriguez,Sarah Peters,38.40917,112.73333,Xinzhou,CN,Shanghai,FALSE,TRUE,TRUE,happy
Asia,17/05/1987,15/07/1987,Steven Carroll,Cynthia Carr,35.64889,117.27583,Sishui,CN,Shanghai,FALSE,TRUE,TRUE,worried
Asia,4/09/2000,22/09/2000,Patrick Nelson,Natalie Jordan,44.35056,142.45778,Nayoro,JP,Tokyo,FALSE,TRUE,TRUE,evasive
Asia,4/05/2004,27/06/2004,Jennifer Massey,Kari Chandler,35.82756,137.95378,Ina,JP,Tokyo,FALSE,TRUE,TRUE,worried
Asia,21/01/2011,31/01/2011,Shelia Jones,Scott Anderson Jr.,13.65805,102.56365,Paoy Paet,KH,Phnom Penh,FALSE,FALSE,TRUE,lonely
Asia,6/07/2010,16/08/2010,Mrs. Cynthia Clark,Julia Cannon,34.08565,74.80555,Srinagar,IN,Kolkata,FALSE,TRUE,TRUE,panicking
Asia,15/06/2012,14/07/2012,Corey Bishop,Zachary Moore,32.65246,51.67462,Isfahan,IR,Tehran,FALSE,TRUE,TRUE,tense
Asia,24/06/1998,5/07/1998,Derek Raymond,Jamie Price,30.35028,112.19028,Jingzhou,CN,Shanghai,FALSE,TRUE,TRUE,injured
Asia,6/01/1997,19/02/1997,Stacy Harris,Rachel Martin,10.58806,77.24779,Udumalaippettai,IN,Kolkata,FALSE,TRUE,TRUE,worried
Asia,2/11/1992,15/11/1992,Andrew Wyatt,Megan West,31.71667,73.38333,Sangla Hill,PK,Karachi,FALSE,TRUE,TRUE,friendly
Asia,18/05/2013,21/05/2013,Amber Byrd,Gordon Jimenez,14.0823,98.19151,Dawei,MM,Yangon,FALSE,TRUE,TRUE,hostile
Asia,10/01/2017,15/01/2017,Jamie Downs,Michael Mueller,10.7375,122.9666,Talisay,PH,Manila,FALSE,TRUE,TRUE,friendly
Asia,6/08/2007,21/08/2007,Deborah Patterson,Jerry Stephenson,35.82756,137.95378,Ina,JP,Tokyo,FALSE,TRUE,FALSE,worried
Asia,26/11/1986,26/12/1986,Sheri Perez,William Joseph,38.40917,112.73333,Xinzhou,CN,Shanghai,TRUE,FALSE,TRUE,hostile
Asia,4/10/1992,29/10/1992,Mr. Gabriel Norman,Sue Norman DVM,30.21121,74.4818,Malaut,IN,Kolkata,FALSE,TRUE,TRUE,paranoid
Asia,13/07/2011,7/09/2011,Robyn Clark,Glenn Li,16.0438,120.4861,Manaoag,PH,Manila,TRUE,FALSE,TRUE,hostile
Asia,20/03/2005,20/04/2005,Breanna Miller,Charles Mitchell,13.51825,99.95469,Damnoen Saduak,TH,Bangkok,FALSE,FALSE,TRUE,hostile
Asia,18/07/1992,3/09/1992,Andrew Houston,Kayla Klein,30.81383,75.16878,Moga,IN,Kolkata,FALSE,TRUE,TRUE,evasive
Asia,4/10/2012,19/11/2012,Dustin Mendoza,Christina Ball,-7.0981,109.3243,Randudongkal,ID,Jakarta,FALSE,FALSE,TRUE,over-complimenting
Asia,26/11/1987,21/01/1988,Larry Simmons,Brandy Mendez,26.9423,68.11759,Tharu Shah,PK,Karachi,FALSE,TRUE,TRUE,out-of-control
Asia,16/06/2002,26/06/2002,Stacey Mcclure,Daniel Moore,12.97389,123.99333,Sorsogon,PH,Manila,TRUE,FALSE,TRUE,evasive
Asia,7/02/2016,23/02/2016,Andrew Williams,Denise Kramer,14.46693,75.92694,Davangere,IN,Kolkata,TRUE,TRUE,TRUE,panicking
Asia,23/04/2009,21/05/2009,Mitchell Chandler,Robert Maxwell,27.0174,49.62251,Al Jubayl,SA,Riyadh,FALSE,TRUE,TRUE,sad
Asia,22/08/1996,29/09/1996,Leslie Archer,Ashley Vaughn,18.51957,73.85535,Pune,IN,Kolkata,FALSE,TRUE,TRUE,panicking
Asia,4/05/2006,25/06/2006,Jeffrey Martinez,James Williams,10.31672,123.89071,Cebu City,PH,Manila,FALSE,TRUE,TRUE,unhappy
Asia,4/03/1995,16/03/1995,Richard Fox,Matthew Young,-1.26424,104.09701,Simpang,ID,Jakarta,FALSE,TRUE,TRUE,unhappy
Asia,26/04/1994,30/04/1994,Nicholas Little,Destiny Peterson,11.00599,77.5609,Kangayam,IN,Kolkata,FALSE,TRUE,FALSE,sad
Asia,1/09/2009,23/10/2009,Jasmine Strickland,Karen Weber,10.58806,77.24779,Udumalaippettai,IN,Kolkata,FALSE,TRUE,TRUE,accusatory
Asia,17/03/2008,8/04/2008,Charles Harrington,Sarah Peters,23.5654,119.58627,Magong,TW,Taipei,FALSE,FALSE,TRUE,paranoid
Asia,15/09/2017,2/10/2017,Henry White,Charlene Mccormick,34.65918,109.22921,Yanliang,CN,Shanghai,FALSE,TRUE,FALSE,sad
Asia,17/09/1985,1/10/1985,Miss Suzanne English PhD,Rebecca Russell,51.82721,107.60627,Ulan-Ude,RU,Irkutsk,FALSE,TRUE,TRUE,oblivious
Asia,14/12/2021,5/02/2022,Robert Sosa,Brittany Burnett,53.14657,140.72287,Nikolayevsk-on-Amure,RU,Vladivostok,FALSE,TRUE,TRUE,fleeing
Asia,11/02/2017,26/03/2017,Richard Thomas,Jamie Martin,39.46667,141.95,Yamada,JP,Tokyo,FALSE,TRUE,TRUE,scared
Asia,15/09/2020,10/10/2020,Brian Salazar,Robert Merritt,31.96258,73.97117,Naushahra Virkan,PK,Karachi,FALSE,FALSE,TRUE,insulting
Asia,18/07/1998,14/08/1998,Christopher Brown,Kenneth Stevenson,23.5654,119.58627,Magong,TW,Taipei,FALSE,FALSE,TRUE,unhappy
Asia,28/11/1994,6/01/1995,Olivia Harris,Hannah Lindsey,41.09246,45.36561,Qazax,AZ,Baku,FALSE,TRUE,TRUE,oblivious
Asia,6/09/2019,15/10/2019,Jennifer Skinner,Nicole Adams,19.21667,73.08333,Dombivli,IN,Kolkata,TRUE,TRUE,TRUE,evasive
Asia,28/11/2010,4/12/2010,Laura Barker,Jerry Collins,32.05971,34.8732,Ganei Tikva,IL,Jerusalem,FALSE,TRUE,TRUE,lonely
Asia,4/05/2022,26/05/2022,Joseph Chavez,Austin Summers,36.82167,128.63083,Eisen,KR,Seoul,FALSE,FALSE,TRUE,unhappy
Asia,26/05/2007,17/06/2007,Kelly Lewis,Mallory Wu,22.37066,114.10479,Tsuen Wan,HK,Hong Kong,FALSE,TRUE,TRUE,confessing
Asia,9/12/1985,22/01/1986,Alexander Flores,Darlene Pitts,23.5654,119.58627,Magong,TW,Taipei,FALSE,TRUE,TRUE,insulting
Asia,28/04/2013,2/05/2013,Steven Hawkins,Destiny Peterson,5.4709,100.24529,Batu Feringgi,MY,Kuala Lumpur,FALSE,TRUE,FALSE,happy
Asia,20/06/2015,10/08/2015,John Carroll,Jessica Duran,27.34089,117.4831,Shaowu,CN,Shanghai,FALSE,TRUE,TRUE,panicking
Asia,9/07/1998,22/07/1998,Melissa Hines,Christopher Sandoval,55.75556,60.70278,Ozersk,RU,Yekaterinburg,TRUE,TRUE,TRUE,worried
Asia,19/03/1998,26/03/1998,Henry Webb,Mrs. Kristin Lopez MD,23.18,88.58,Aistala,IN,Kolkata,FALSE,TRUE,TRUE,paranoid
Asia,18/08/2021,1/09/2021,Amy Diaz,Jennifer George,27.85,112.9,Xiangtan,CN,Shanghai,FALSE,FALSE,TRUE,paranoid
Asia,5/11/2002,8/11/2002,Cody Paul,Brandon Miller,18.87813,72.93924,Uran,IN,Kolkata,FALSE,TRUE,TRUE,paranoid
Asia,24/11/2017,4/01/2018,Donald Carlson,Allen Baker,43.41949,77.0202,Otegen Batyra,KZ,Almaty,FALSE,TRUE,TRUE,friendly
Asia,2/11/1985,14/12/1985,Megan Mills,Brittany Henderson,-7.54972,110.71639,Ngemplak,ID,Jakarta,FALSE,FALSE,TRUE,friendly
Asia,9/10/1999,26/11/1999,James Arias,Timothy Williams,33.14447,47.3799,Darreh Shahr,IR,Tehran,FALSE,TRUE,TRUE,tense
Asia,5/02/2019,9/02/2019,Jessica Pena,Garrett Martinez,41.94175,123.50266,Hushitai,CN,Shanghai,FALSE,TRUE,TRUE,evasive
Asia,8/06/2021,15/06/2021,Cynthia Griffith,Kevin Contreras,33.78333,114.51667,Wacheng,CN,Shanghai,FALSE,TRUE,TRUE,paranoid
Asia,4/02/2001,14/02/2001,Carlos Parker,Jasmine Rowland,29.22254,79.5286,Haldwani,IN,Kolkata,TRUE,TRUE,TRUE,hostile
Asia,6/05/2008,10/05/2008,Alexandra Lewis,Christopher Ross,35.8,137.23333,Gero,JP,Tokyo,FALSE,FALSE,TRUE,tense
Asia,25/03/2011,1/05/2011,Michael Pope,Rose Reed,60.97944,76.92421,Izluchinsk,RU,Yekaterinburg,FALSE,TRUE,TRUE,lonely
Asia,12/06/1986,12/06/1986,Jodi Kelly,Barbara Bailey,24.28859,116.11768,Meizhou,CN,Shanghai,FALSE,FALSE,TRUE,hostile
Asia,6/12/2016,20/12/2016,Jessica Hill,Emily Ruiz,32.61603,44.02488,Karbala,IQ,Baghdad,FALSE,TRUE,TRUE,scared
Asia,31/10/2011,25/11/2011,Brittany Calderon,Christopher Morrison,22.37066,114.10479,Tsuen Wan,HK,Hong Kong,FALSE,FALSE,TRUE,evasive
Asia,8/04/2022,17/05/2022,James Nash,Julie Nguyen,30.35028,112.19028,Jingzhou,CN,Shanghai,TRUE,FALSE,TRUE,silent
Asia,24/03/2019,3/05/2019,Tyrone Scott,Amy Moore,-7.0981,109.3243,Randudongkal,ID,Jakarta,FALSE,FALSE,TRUE,unhappy
Asia,14/08/1988,26/08/1988,James Butler,Angelica Chan,22.75218,72.68533,Kheda,IN,Kolkata,TRUE,TRUE,TRUE,happy
Asia,4/04/2006,17/04/2006,Mr. Jon Stone,Shelly Espinoza,23.5654,119.58627,Magong,TW,Taipei,FALSE,TRUE,TRUE,accusatory
Asia,16/10/1993,9/11/1993,James Jones,Kevin Martin,51.82721,107.60627,Ulan-Ude,RU,Irkutsk,FALSE,FALSE,TRUE,sad
Asia,6/02/2021,3/03/2021,Brent Pitts,Michael Smith,35.20889,111.73861,Changzhi,CN,Shanghai,FALSE,FALSE,TRUE,panicking
Asia,26/04/2019,2/06/2019,Ashley Cross MD,Daniel Lewis,15.5439,73.7553,Calangute,IN,Kolkata,FALSE,TRUE,TRUE,over-complimenting
Asia,10/10/1991,26/10/1991,Heather Moore,Laura Santana,37.56667,140.11667,Inawashiro,JP,Tokyo,TRUE,FALSE,TRUE,sad
Asia,28/02/2014,17/04/2014,Carlos Lowe,Kimberly Perez,14.66,120.56528,Pilar,PH,Manila,FALSE,FALSE,TRUE,happy
Asia,14/06/2010,13/07/2010,Peter Pearson,Laura Santana,-7.51611,109.05389,Wangon,ID,Jakarta,FALSE,FALSE,TRUE,out-of-control
Asia,24/03/1996,15/05/1996,Mr. Gary Mccoy,Christine Shah,16.455,120.5875,La Trinidad,PH,Manila,FALSE,TRUE,TRUE,injured
Asia,14/08/1996,10/10/1996,Michael Hoffman,Jordan Torres,53.14657,140.72287,Nikolayevsk-on-Amure,RU,Vladivostok,TRUE,TRUE,TRUE,friendly
Asia,8/12/2011,2/02/2012,Michael Jones,Jacob Salazar,43.41949,77.0202,Otegen Batyra,KZ,Almaty,FALSE,FALSE,TRUE,worried
Asia,3/12/1992,6/12/1992,Kevin Freeman,Judith Meyer,28.88162,120.03308,Guli,CN,Shanghai,FALSE,TRUE,FALSE,lonely
Asia,23/09/1986,21/11/1986,Sarah Sutton,Julian Anderson,23.9028,89.11943,Kushtia,BD,Dhaka,TRUE,TRUE,TRUE,injured
Asia,22/09/1994,28/09/1994,Austin Scott,Nathaniel Jackson,36.81667,117.81667,Zhoucun,CN,Shanghai,FALSE,FALSE,TRUE,complaining
Asia,21/05/2001,1/06/2001,Victoria Martinez,Tanya Conley,34.08565,74.80555,Srinagar,IN,Kolkata,FALSE,TRUE,TRUE,complaining
Asia,1/01/2014,1/03/2014,Kelsey Ferrell,Susan Bowers,14.8361,120.97844,Guyong,PH,Manila,FALSE,TRUE,TRUE,insulting
Asia,5/09/2007,15/10/2007,David Bates,Denise Johnson,28.88162,120.03308,Guli,CN,Shanghai,TRUE,TRUE,TRUE,over-complimenting
Asia,11/05/2006,29/06/2006,Kathy Wilson,Zachary Hawkins,15.73628,75.96976,Gajendragarh,IN,Kolkata,FALSE,TRUE,TRUE,tense
Asia,4/11/1997,30/12/1997,David Hansen,Darren Simpson,54.48147,53.47103,Oktyabr‚Äôskiy,RU,Yekaterinburg,FALSE,TRUE,TRUE,insulting
Asia,10/07/1986,20/07/1986,Benjamin Sheppard,Donald Pierce,10.12268,77.54372,Periyakulam,IN,Kolkata,FALSE,TRUE,TRUE,panicking
Asia,17/04/2009,6/06/2009,Renee Castillo,Carrie Boone,25.13915,73.06784,Sheoganj,IN,Kolkata,FALSE,TRUE,TRUE,unhappy
Asia,11/10/2015,24/11/2015,Amy Chan,Nicholas Jones,27.85,112.9,Xiangtan,CN,Shanghai,FALSE,FALSE,TRUE,evasive
Asia,9/06/2002,21/06/2002,Nicole Hoffman,Jeffrey Graves MD,27.92333,118.53333,Pucheng,CN,Shanghai,FALSE,TRUE,TRUE,lonely
Asia,27/02/2008,9/03/2008,Rebekah Alexander,Loretta Wood,36.82167,128.63083,Eisen,KR,Seoul,FALSE,FALSE,TRUE,complaining
Asia,29/11/1992,23/12/1992,Mary Taylor,Nathaniel Jackson,37.65639,126.835,Goyang-si,KR,Seoul,FALSE,FALSE,TRUE,panicking
Asia,16/08/2019,27/08/2019,Sue Gibson,Chad Chandler,26.76628,83.36889,Gorakhpur,IN,Kolkata,FALSE,TRUE,TRUE,over-complimenting
Asia,17/10/1992,2/11/1992,Bailey Cardenas,Michael Smith,27.52948,68.75915,Khairpur Mir‚Äôs,PK,Karachi,TRUE,FALSE,TRUE,friendly
Asia,22/11/2004,29/11/2004,Adam Zimmerman,Brendan Love,41.82143,41.77921,Kobuleti,GE,Tbilisi,FALSE,TRUE,TRUE,happy
Asia,12/11/1986,29/12/1986,Michael Valentine,Kaitlyn Booker,41.94175,123.50266,Hushitai,CN,Shanghai,FALSE,TRUE,TRUE,confessing
Asia,2/06/1996,11/07/1996,Adriana Meyer,Matthew Chavez,36.33011,138.89585,Annaka,JP,Tokyo,FALSE,FALSE,TRUE,panicking
Asia,4/02/2000,13/02/2000,Tami Hill,Belinda Thompson,16.455,120.5875,La Trinidad,PH,Manila,FALSE,FALSE,TRUE,panicking
Asia,25/01/2006,6/02/2006,Kimberly Browning,Mary Scott,51.4781,57.3552,Kuvandyk,RU,Yekaterinburg,FALSE,TRUE,TRUE,insulting
Asia,10/03/2004,18/04/2004,Kristi Day,Hannah Lindsey,39.46667,141.95,Yamada,JP,Tokyo,FALSE,TRUE,TRUE,unhappy
Asia,30/08/1994,30/09/1994,John Elliott,Garrett Moore,14.95472,120.89694,Baliuag,PH,Manila,FALSE,TRUE,TRUE,silent
Asia,13/10/1995,4/11/1995,Dalton Thompson,Mrs. Amy Munoz PhD,12.1277,78.15794,Dharmapuri,IN,Kolkata,FALSE,TRUE,TRUE,unhappy
Asia,26/02/2004,28/03/2004,Kevin Andersen,Linda Edwards,34.25,135.31667,Iwade,JP,Tokyo,FALSE,TRUE,TRUE,accusatory
Asia,8/02/1991,11/02/1991,Kaitlyn Horton,Kimberly Cooper,27.85,112.9,Xiangtan,CN,Shanghai,FALSE,FALSE,TRUE,over-complimenting
Asia,13/12/1988,13/12/1988,Ryan Maxwell,Kimberly Mills,12.1277,78.15794,Dharmapuri,IN,Kolkata,FALSE,TRUE,FALSE,friendly
Asia,22/04/2015,15/06/2015,Stacy Nelson,Sandra Ramos,58.23583,92.48278,Lesosibirsk,RU,Krasnoyarsk,TRUE,FALSE,TRUE,panicking
Asia,14/06/1988,11/08/1988,Amy Zimmerman,Larry King,32.54278,111.50861,Danjiangkou,CN,Shanghai,FALSE,FALSE,TRUE,worried
Asia,25/10/2019,25/10/2019,Richard Harmon,Patrick Stephens,34.25,135.31667,Iwade,JP,Tokyo,FALSE,FALSE,FALSE,friendly
Asia,23/12/1989,10/02/1990,Gregory Williamson,Scott Houston,11.93381,79.82979,Puducherry,IN,Kolkata,FALSE,TRUE,TRUE,sad
Asia,19/05/2003,27/05/2003,Dr. Jennifer Thompson,Tracy Young,25.92493,73.66633,Sojat,IN,Kolkata,FALSE,TRUE,TRUE,over-complimenting
Asia,1/05/1997,10/06/1997,Troy Rodriguez,Susan Bowers,-6.48167,106.85417,Cibinong,ID,Jakarta,FALSE,FALSE,TRUE,accusatory
Asia,8/02/1992,29/03/1992,Kimberly Sanders,Jerry Stephenson,31.78336,35.23388,East Jerusalem,PS,Hebron,FALSE,TRUE,TRUE,injured
Asia,7/03/1987,16/03/1987,Wendy Welch,David Woodward,34.75856,136.13108,Ueno-ebisumachi,JP,Tokyo,FALSE,TRUE,TRUE,insulting
Asia,18/11/2010,8/12/2010,Erika Marquez,James Dawson,-6.91806,106.92667,Sukabumi,ID,Jakarta,FALSE,FALSE,TRUE,happy
Asia,26/07/2004,12/08/2004,Jonathan Jones,James Burnett,16.68911,98.50893,Myawadi,MM,Yangon,FALSE,TRUE,TRUE,out-of-control
Asia,23/06/2005,12/07/2005,Krista Sanchez,Kevin Evans,30.29184,71.67164,Qadirpur Ran,PK,Karachi,FALSE,FALSE,TRUE,paranoid
Asia,26/05/2002,15/06/2002,Mario Nelson,William Barton,26.76628,83.36889,Gorakhpur,IN,Kolkata,TRUE,FALSE,TRUE,worried
Asia,7/09/2007,22/09/2007,James Wilson,Beth Cuevas,14.64056,104.64992,Kantharalak,TH,Bangkok,FALSE,FALSE,TRUE,paranoid
Asia,13/12/2017,24/01/2018,Melissa Taylor,Kenneth Stevenson,31.64615,120.74221,Changshu City,CN,Shanghai,TRUE,TRUE,TRUE,oblivious
Asia,9/06/2006,10/07/2006,Zachary Hall,Michael Mueller,38.55632,69.01354,Vahdat,TJ,Dushanbe,FALSE,TRUE,TRUE,unhappy
Asia,14/02/2010,31/03/2010,Kayla Weber,Maurice Mccarthy,27.85,112.9,Xiangtan,CN,Shanghai,FALSE,TRUE,TRUE,confessing
Asia,16/11/2013,19/11/2013,Susan Williams,Jeanne Green,42.64031,125.51176,Dongfeng,CN,Shanghai,FALSE,FALSE,TRUE,happy
Asia,28/03/1997,7/04/1997,Monica Morrison,Christopher Ross,16.0567,103.65309,Roi Et,TH,Bangkok,FALSE,TRUE,TRUE,out-of-control
Asia,7/09/1990,4/11/1990,Daniel Ochoa,Jacob Carlson,27.0174,49.62251,Al Jubayl,SA,Riyadh,FALSE,TRUE,TRUE,paranoid
Asia,9/05/2008,2/06/2008,Veronica Mccann,Candice Johnson,41.09822,120.74792,Nanpiao,CN,Shanghai,FALSE,TRUE,TRUE,tense
Asia,21/06/2003,24/07/2003,Jesse Nelson,Natalie Jordan,21.53889,71.57737,Gariadhar,IN,Kolkata,FALSE,FALSE,TRUE,friendly
Asia,18/07/2021,17/08/2021,Christian Morales,Laura Cook,25.87498,86.59611,Saharsa,IN,Kolkata,FALSE,TRUE,TRUE,unhappy
Asia,16/11/2011,30/12/2011,Ricky Kim,Latasha Norris,14.0823,98.19151,Dawei,MM,Yangon,FALSE,TRUE,TRUE,over-complimenting
Asia,21/01/2017,28/01/2017,Lee Dixon,Kimberly Gibson,55.8736,85.4265,Yashkino,RU,Novokuznetsk,FALSE,FALSE,TRUE,worried
Asia,14/07/2013,11/08/2013,Timothy Lee,Linda Edwards,35.6803,51.0193,Shahre Jadide Andisheh,IR,Tehran,FALSE,FALSE,TRUE,scared
Asia,6/06/2010,13/07/2010,Troy Gonzales,Jessica Duran,51.4781,57.3552,Kuvandyk,RU,Yekaterinburg,FALSE,FALSE,TRUE,confessing
Asia,22/06/2008,8/07/2008,Darlene Mckay,Christopher Miller,21.46527,83.97573,Sambalpur,IN,Kolkata,FALSE,FALSE,TRUE,over-complimenting
Asia,12/05/1993,6/07/1993,Matthew King,Michael Maynard,13.65805,102.56365,Paoy Paet,KH,Phnom Penh,FALSE,TRUE,TRUE,complaining
Asia,10/04/2005,26/04/2005,Jorge Torres Jr.,Jamie Price,11.50526,77.23826,Sathyamangalam,IN,Kolkata,FALSE,FALSE,TRUE,lonely
Asia,26/04/2008,28/05/2008,Dawn Wang,Julia Cannon,14.46693,75.92694,Davangere,IN,Kolkata,FALSE,TRUE,TRUE,silent
Asia,23/12/2000,24/01/2001,Jean Meyers,Jennifer Cook,6.33444,124.95278,Tupi,PH,Manila,TRUE,TRUE,TRUE,lonely
Asia,23/08/2013,20/09/2013,Sarah Cole,Cassidy Brown,30.29184,71.67164,Qadirpur Ran,PK,Karachi,FALSE,TRUE,TRUE,evasive
Asia,3/05/1992,13/06/1992,John Williams,Jacob Santiago,41.27194,123.17306,Liaoyang,CN,Shanghai,FALSE,TRUE,TRUE,insulting
Asia,29/04/1989,7/06/1989,Jacob Lee,Kyle Thomas,10.12268,77.54372,Periyakulam,IN,Kolkata,FALSE,FALSE,TRUE,insulting
Asia,13/01/2006,9/03/2006,Robin Smith,Christina Krause,25.80565,68.49143,Bhit Shah,PK,Karachi,FALSE,TRUE,TRUE,accusatory
Asia,5/11/1987,1/12/1987,David Hendricks,Candice Johnson,12.04161,75.35927,Talipparamba,IN,Kolkata,FALSE,TRUE,TRUE,tense
Asia,10/06/2009,3/07/2009,Melvin Mendoza,Mr. Frederick Bryant,3.7278,98.6738,Labuhan Deli,ID,Jakarta,FALSE,FALSE,TRUE,injured
Asia,7/01/2003,14/01/2003,Joshua Hoover,Jessica Duran,35.6803,51.0193,Shahre Jadide Andisheh,IR,Tehran,FALSE,FALSE,TRUE,oblivious
Asia,13/02/2011,27/02/2011,Paul Baker,Leslie Curtis,47.83333,59.6,Shalqar,KZ,Aqtobe,TRUE,TRUE,TRUE,complaining
Asia,7/04/2011,27/05/2011,Kenneth Carter,Glen Walker,36.65,138.31667,Suzaka,JP,Tokyo,FALSE,FALSE,TRUE,scared
Asia,1/08/2008,20/09/2008,Terri Boyd,Rachel Martin,55.54028,89.20083,Sharypovo,RU,Krasnoyarsk,FALSE,TRUE,TRUE,scared
Asia,25/01/2019,10/02/2019,Arthur Sloan,Angel Gonzales,15.5439,73.7553,Calangute,IN,Kolkata,FALSE,FALSE,TRUE,oblivious
Asia,4/06/2021,23/07/2021,Amanda Reynolds,Angela Strickland,27.34089,117.4831,Shaowu,CN,Shanghai,TRUE,FALSE,TRUE,fleeing
Asia,21/11/1998,11/01/1999,Mr. Jason Perez,Emily Santana,-7.57897,112.23109,Diwek,ID,Jakarta,FALSE,TRUE,TRUE,oblivious
Asia,7/09/1992,7/10/1992,Cory Foster,Sharon Young,29.98869,122.20488,Zhoushan,CN,Shanghai,FALSE,FALSE,TRUE,over-complimenting
Asia,25/06/2008,28/07/2008,Amy Gray,Ashley Vaughn,27.34089,117.4831,Shaowu,CN,Shanghai,TRUE,TRUE,TRUE,unhappy
Asia,8/02/2018,22/02/2018,Eric Osborn,Timothy Davis,41.09246,45.36561,Qazax,AZ,Baku,FALSE,TRUE,TRUE,fleeing
Asia,22/12/2004,9/02/2005,Brittany Hoffman,Christine Shah,40.66482,122.22833,Yingkou,CN,Shanghai,FALSE,TRUE,TRUE,friendly
Asia,11/02/2016,25/03/2016,Melissa Crane,Anthony Hamilton,26.11527,86.59509,Supaul,IN,Kolkata,FALSE,TRUE,TRUE,happy
Asia,6/06/2014,21/07/2014,Lisa Estrada,Misty Young,27.92333,118.53333,Pucheng,CN,Shanghai,FALSE,FALSE,TRUE,accusatory
Asia,6/06/1998,31/07/1998,Larry Williams,Richard Green,43.41949,77.0202,Otegen Batyra,KZ,Almaty,FALSE,TRUE,TRUE,panicking
Asia,15/02/1993,10/03/1993,Samuel Mcintosh,Donna Mathis,25.92493,73.66633,Sojat,IN,Kolkata,FALSE,FALSE,TRUE,lonely
Asia,16/05/1986,31/05/1986,Jeffrey Diaz,John Carlson,-7.73379,113.69785,Besuki,ID,Jakarta,FALSE,TRUE,TRUE,tense
Asia,17/01/1995,24/02/1995,Zoe Martinez,David Woodward,22.75218,72.68533,Kheda,IN,Kolkata,FALSE,TRUE,TRUE,lonely
Asia,15/11/2007,18/12/2007,Michaela Gamble,Donna Mathis,36.33011,138.89585,Annaka,JP,Tokyo,FALSE,FALSE,TRUE,oblivious
Asia,9/10/2014,10/10/2014,Eric Hernandez DDS,Richard Reyes,47.83333,59.6,Shalqar,KZ,Aqtobe,FALSE,TRUE,TRUE,complaining
Asia,22/03/2008,28/04/2008,William Hampton,Brett Scott,34.75856,136.13108,Ueno-ebisumachi,JP,Tokyo,FALSE,FALSE,TRUE,tense
Asia,24/09/1988,13/11/1988,Vanessa Reed,Bethany Chen,34.81667,137.4,Toyokawa,JP,Tokyo,FALSE,TRUE,TRUE,oblivious
Asia,26/12/1985,16/01/1986,Katrina Davidson,William Zuniga,41.94175,123.50266,Hushitai,CN,Shanghai,FALSE,TRUE,TRUE,paranoid
Asia,11/09/2009,25/09/2009,Justin Martinez,Theresa Patterson,22.75218,72.68533,Kheda,IN,Kolkata,FALSE,TRUE,TRUE,over-complimenting
Asia,21/09/2000,12/11/2000,Kyle Ramirez,Jennifer Hoffman,55.54028,89.20083,Sharypovo,RU,Krasnoyarsk,FALSE,TRUE,TRUE,paranoid
Asia,18/03/1989,25/04/1989,Dr. James Torres,Matthew Young,3.3285,99.1625,Tebingtinggi,ID,Jakarta,FALSE,FALSE,TRUE,worried
Asia,9/01/1996,16/02/1996,Gloria Higgins,Natalie Patrick,14.95472,120.89694,Baliuag,PH,Manila,FALSE,TRUE,TRUE,sad
Asia,21/12/2000,3/02/2001,Rose Douglas,Sarah Reynolds,37.73222,115.70111,Hengshui,CN,Shanghai,FALSE,FALSE,TRUE,unhappy
Asia,22/09/2018,20/10/2018,Jessica Bruce,Anna Flores,44.85278,65.50917,Kyzylorda,KZ,Qyzylorda,FALSE,FALSE,TRUE,sad
Asia,12/10/2015,2/12/2015,Jose Fernandez,Jennifer Snyder,17.34769,78.55757,Lal Bahadur Nagar,IN,Kolkata,FALSE,TRUE,TRUE,talkative
Asia,18/04/1995,10/05/1995,Benjamin Johnson,Tracy Blackwell,37.56667,140.11667,Inawashiro,JP,Tokyo,FALSE,TRUE,TRUE,out-of-control
Asia,5/10/2005,5/11/2005,Jeffrey Burns,Lauren Johnson,19.30157,72.85107,Bhayandar,IN,Kolkata,FALSE,TRUE,TRUE,insulting
Asia,19/12/1985,26/01/1986,Lisa Everett,William Wood,1.6561,103.6032,Kulai,MY,Kuala Lumpur,TRUE,TRUE,FALSE,silent
Asia,12/10/2000,23/10/2000,James Tyler,Garrett Moore,32.55531,76.12647,Chamba,IN,Kolkata,FALSE,TRUE,TRUE,accusatory
Asia,12/02/1998,24/03/1998,Mary Mosley,Joshua Curtis,53.14657,140.72287,Nikolayevsk-on-Amure,RU,Vladivostok,FALSE,FALSE,TRUE,hostile
Asia,11/04/1995,3/06/1995,Sarah Mckenzie,Edward Hernandez,51.82721,107.60627,Ulan-Ude,RU,Irkutsk,FALSE,FALSE,TRUE,lonely
Asia,2/09/1990,26/10/1990,Jeffrey Michael,Mark Valenzuela,51.4781,57.3552,Kuvandyk,RU,Yekaterinburg,TRUE,TRUE,TRUE,confessing
Asia,29/09/1994,16/10/1994,Michele Leonard DVM,James Anderson,24.05979,77.40858,Leteri,IN,Kolkata,FALSE,FALSE,TRUE,panicking
Asia,8/11/2007,26/11/2007,Patricia Martinez,Kathleen Munoz,28.71271,77.656,Pilkhua,IN,Kolkata,TRUE,TRUE,TRUE,hostile
Asia,23/03/2007,17/04/2007,Lisa Marks,Erin Ray,53.14657,140.72287,Nikolayevsk-on-Amure,RU,Vladivostok,FALSE,FALSE,TRUE,insulting
Asia,25/11/2009,11/12/2009,Cristian Quinn,Alexis Conway PhD,33.78333,114.51667,Wacheng,CN,Shanghai,FALSE,TRUE,TRUE,out-of-control
Asia,24/09/2009,24/10/2009,Samantha Bray,Darren Simpson,31.71667,73.38333,Sangla Hill,PK,Karachi,FALSE,FALSE,TRUE,lonely
Asia,26/06/1991,7/08/1991,Teresa Young,Christine Obrien,51.78771,56.36091,Saraktash,RU,Yekaterinburg,FALSE,TRUE,TRUE,worried
Asia,27/07/2001,3/09/2001,Shelley Phillips,Eric French,12.35275,121.06761,San Jose,PH,Manila,FALSE,FALSE,TRUE,talkative
Asia,25/02/1990,7/03/1990,Diane Thompson,Janice Carroll,38.45598,48.87498,Astara,AZ,Baku,FALSE,TRUE,TRUE,friendly
Asia,24/12/1999,8/02/2000,Johnny Price,Amber Wright,34.5624,38.28402,Tadmur,SY,Damascus,FALSE,TRUE,TRUE,accusatory
Asia,3/12/1999,21/01/2000,James Campbell,Jeffrey Graves MD,9.6531,124.3697,Jagna,PH,Manila,FALSE,FALSE,TRUE,friendly
Asia,13/10/1987,27/11/1987,Steven Diaz,Susan Thomas,6.84019,79.87116,Dehiwala-Mount Lavinia,LK,Colombo,FALSE,TRUE,TRUE,hostile
Asia,14/04/2018,15/05/2018,Caitlin Rivera DDS,Michelle Jarvis,18.51957,73.85535,Pune,IN,Kolkata,FALSE,TRUE,TRUE,fleeing
Asia,17/01/2006,14/02/2006,Steven Spears,Cassidy Brown,5.90702,116.10146,Donggongon,MY,Kuching,FALSE,TRUE,TRUE,unhappy
Asia,10/07/1989,24/07/1989,Cynthia Bennett,Eric Wilson,10.13361,124.84472,Maasin,PH,Manila,FALSE,TRUE,TRUE,paranoid
Asia,16/10/2001,15/11/2001,Thomas Anderson,Jesse Boyd,32.55531,76.12647,Chamba,IN,Kolkata,FALSE,FALSE,TRUE,paranoid
Asia,23/02/1992,22/04/1992,Kristin Velazquez,Patricia Miller,29.22254,79.5286,Haldwani,IN,Kolkata,FALSE,TRUE,TRUE,silent
Asia,6/04/2013,27/04/2013,Chris Welch,Crystal Kelly,45.75279,130.57211,Boli,CN,Shanghai,FALSE,FALSE,TRUE,worried
Asia,11/09/2011,20/10/2011,Jim Jackson,Nicole Adams,36.24624,139.07204,Fujioka,JP,Tokyo,FALSE,FALSE,TRUE,panicking
Asia,31/03/2005,12/05/2005,Summer Mitchell,Elizabeth Cooper,54.48147,53.47103,Oktyabr‚Äôskiy,RU,Yekaterinburg,TRUE,TRUE,TRUE,unhappy
Asia,22/08/2001,24/08/2001,James Lutz,Amber Wright,37.56667,140.11667,Inawashiro,JP,Tokyo,FALSE,TRUE,TRUE,friendly
Asia,10/11/2006,12/12/2006,Sarah Smith,Jasmine Rowland,51.4781,57.3552,Kuvandyk,RU,Yekaterinburg,FALSE,FALSE,TRUE,injured
Asia,22/10/2017,12/12/2017,Penny Tapia,Michelle Jarvis,12.04161,75.35927,Talipparamba,IN,Kolkata,FALSE,TRUE,TRUE,worried
Asia,19/04/2018,14/05/2018,Dennis Frazier,Jeffery Carter,36.75965,137.36215,Namerikawa,JP,Tokyo,FALSE,TRUE,TRUE,paranoid
Asia,19/07/1987,13/08/1987,Aaron Contreras,Jennifer George,32.05971,34.8732,Ganei Tikva,IL,Jerusalem,FALSE,TRUE,TRUE,fleeing
Asia,20/10/1986,7/12/1986,Daniel Bass,Angel Gonzales,35.815,139.6853,Shimotoda,JP,Tokyo,FALSE,FALSE,FALSE,panicking
Asia,2/01/1987,24/01/1987,Kevin Finley,John Hayes,41.27194,123.17306,Liaoyang,CN,Shanghai,FALSE,TRUE,TRUE,unhappy
Asia,28/10/2012,13/12/2012,Michael Garrison,Carrie Boone,36.20389,127.08472,Nonsan,KR,Seoul,FALSE,TRUE,TRUE,scared
Asia,7/02/2003,11/03/2003,Allison Navarro,James Dawson,-8.43333,114.33333,Muncar,ID,Jakarta,FALSE,TRUE,TRUE,happy
Asia,7/02/2004,8/02/2004,April Yates,Kerry Buck,26.32293,91.00632,Barpeta,IN,Kolkata,FALSE,TRUE,TRUE,out-of-control
Asia,6/02/2006,25/02/2006,Christine Allen,Alexis Conway PhD,51.82721,107.60627,Ulan-Ude,RU,Irkutsk,FALSE,TRUE,TRUE,scared
Asia,19/11/1998,12/01/1999,Tamara Cook,Stephen Mills,25.92127,86.79271,Madhipura,IN,Kolkata,FALSE,TRUE,TRUE,accusatory
Asia,28/12/1996,1/02/1997,Daniel Rodriguez,Hunter Lee,33.78333,114.51667,Wacheng,CN,Shanghai,FALSE,FALSE,TRUE,accusatory
Asia,19/07/2009,26/07/2009,Michael Guerra,Wesley Horton,22.37066,114.10479,Tsuen Wan,HK,Hong Kong,FALSE,FALSE,TRUE,happy
Asia,21/05/2006,2/06/2006,Shelby Scott,Emily Santana,-7.51611,109.05389,Wangon,ID,Jakarta,FALSE,FALSE,TRUE,lonely
Asia,18/07/2013,25/07/2013,Joseph Klein,Mr. James Hooper,24.28859,116.11768,Meizhou,CN,Shanghai,FALSE,FALSE,TRUE,confessing
Asia,21/04/1995,9/06/1995,David Rowe,Garrett Lawrence,-7.0981,109.3243,Randudongkal,ID,Jakarta,TRUE,TRUE,TRUE,confessing
Asia,6/05/1986,16/05/1986,Erin Tanner,Rachel Barnes,17.34769,78.55757,Lal Bahadur Nagar,IN,Kolkata,FALSE,TRUE,TRUE,scared
Asia,25/12/2007,19/01/2008,Toni Jensen,Carrie Jones,35.6803,51.0193,Shahre Jadide Andisheh,IR,Tehran,FALSE,FALSE,FALSE,sad
Asia,27/02/2018,7/04/2018,Sandra Lopez,Sherry Aguilar,28.88162,120.03308,Guli,CN,Shanghai,FALSE,TRUE,TRUE,insulting
Asia,20/01/1995,29/01/1995,Chelsea Pollard,James Dawson,13.44581,101.18445,Phanat Nikhom,TH,Bangkok,TRUE,TRUE,TRUE,sad
Asia,10/05/1997,2/07/1997,Monica Robinson,Andre Lamb,32.05971,34.8732,Ganei Tikva,IL,Jerusalem,FALSE,TRUE,TRUE,out-of-control
Asia,6/12/2011,24/12/2011,Sylvia Payne,Jennifer Cook,14.14989,121.3152,Calauan,PH,Manila,FALSE,TRUE,TRUE,injured
Asia,1/06/2003,19/07/2003,Jamie Morgan,Eric Roberts,10.7375,122.9666,Talisay,PH,Manila,FALSE,TRUE,TRUE,worried
Asia,17/04/1998,3/05/1998,Melissa Owens,Denise Park,27.52948,68.75915,Khairpur Mir‚Äôs,PK,Karachi,FALSE,TRUE,TRUE,oblivious
Asia,21/02/1992,27/03/1992,Tony Kim,Judith Meyer,18.18158,76.03889,Osmanabad,IN,Kolkata,FALSE,TRUE,TRUE,over-complimenting
Asia,8/04/1997,2/05/1997,Jerry Henson,Ashley Carr,6.33444,124.95278,Tupi,PH,Manila,FALSE,TRUE,TRUE,scared
Asia,24/11/1989,22/12/1989,Kevin Harris,Lisa Sweeney,36.6009,126.665,Hongseong,KR,Seoul,FALSE,FALSE,TRUE,insulting
Asia,18/11/1988,16/12/1988,Anna Carrillo,Diana Torres,34.56861,105.89333,Beidao,CN,Shanghai,FALSE,TRUE,TRUE,out-of-control
Asia,14/03/2008,15/03/2008,Ryan Perez,Elizabeth Cook,43.41949,77.0202,Otegen Batyra,KZ,Almaty,FALSE,TRUE,TRUE,sad
Asia,20/09/2011,1/10/2011,Allen Walls,Glenn Li,-1.6,103.61667,Jambi City,ID,Jakarta,FALSE,TRUE,TRUE,scared
Asia,2/10/1985,18/10/1985,Robin Sanchez,Kristin Werner,12.04161,75.35927,Talipparamba,IN,Kolkata,FALSE,FALSE,TRUE,sad
Asia,29/01/2010,21/03/2010,Karina Davis,Jasmine Rowland,15.5439,73.7553,Calangute,IN,Kolkata,TRUE,FALSE,TRUE,oblivious
Asia,4/07/1994,20/07/1994,Stephanie Burch,Michael Mercer,23.18,88.58,Aistala,IN,Kolkata,FALSE,TRUE,TRUE,over-complimenting
Asia,20/08/2003,14/10/2003,Angela Gibson,Tiffany Morrison,19.21667,73.08333,Dombivli,IN,Kolkata,FALSE,FALSE,TRUE,injured
Asia,13/09/1995,16/10/1995,Richard Villanueva,Kelly Barnes,20.88098,75.11937,Parola,IN,Kolkata,FALSE,FALSE,TRUE,unhappy
Asia,11/10/1994,3/12/1994,Joyce Tyler,Nathaniel Jackson,15.58552,102.42587,Bua Yai,TH,Bangkok,FALSE,TRUE,FALSE,fleeing
Asia,4/09/2017,15/10/2017,Alicia Martin,Kelly Barnes,15.45144,78.14797,Betamcherla,IN,Kolkata,FALSE,TRUE,TRUE,talkative
Asia,3/10/2020,16/10/2020,Mr. Brian Mcdaniel,Angel Payne,6.95194,121.96361,Recodo,PH,Manila,FALSE,TRUE,TRUE,paranoid
Asia,15/01/2008,11/03/2008,Natasha Rodriguez,Jordan Torres,14.62578,121.12251,Antipolo,PH,Manila,FALSE,TRUE,TRUE,friendly
Asia,20/09/1985,18/10/1985,Emily Norman,Lucas Kirk,41.09822,120.74792,Nanpiao,CN,Shanghai,FALSE,TRUE,TRUE,oblivious
Asia,9/03/2012,17/03/2012,Daniel Patterson,Sonia Mcdaniel,16.0567,103.65309,Roi Et,TH,Bangkok,FALSE,FALSE,TRUE,tense
Asia,3/08/1987,31/08/1987,Sarah Hodges,Erin Ray,35.20889,111.73861,Changzhi,CN,Shanghai,FALSE,TRUE,TRUE,injured
Asia,24/10/2007,10/11/2007,Julia Davis,Jamie Martin,4.88441,101.96857,Gua Musang,MY,Kuala Lumpur,FALSE,FALSE,TRUE,talkative
Asia,25/06/1991,27/07/1991,Joseph Hill,David Richardson,19.21667,73.08333,Dombivli,IN,Kolkata,FALSE,FALSE,TRUE,accusatory
Asia,17/03/1987,23/03/1987,Mary Pennington,Mrs. Amy Munoz PhD,51.4781,57.3552,Kuvandyk,RU,Yekaterinburg,FALSE,TRUE,TRUE,lonely
Asia,2/09/1999,15/10/1999,James Small,Mark Valenzuela,56.11281,69.49015,Ishim,RU,Yekaterinburg,FALSE,TRUE,TRUE,complaining
Asia,11/11/2019,5/01/2020,Lori Pruitt,Christopher Smith,35.6803,51.0193,Shahre Jadide Andisheh,IR,Tehran,FALSE,TRUE,TRUE,silent
Asia,10/04/2015,20/04/2015,Tiffany Velasquez,Tammy Bruce,9.82564,78.25795,Tiruppuvanam,IN,Kolkata,FALSE,FALSE,TRUE,complaining
Asia,24/03/2014,28/04/2014,Christine Krause,Garrett Allen,1.6561,103.6032,Kulai,MY,Kuala Lumpur,FALSE,TRUE,TRUE,insulting
Asia,24/10/2014,21/12/2014,Thomas Garza,Michael Webb,6.9909,79.883,Hendala,LK,Colombo,FALSE,FALSE,TRUE,confessing
Asia,20/12/2004,19/01/2005,Travis Medina,Jane Huff,30.35028,112.19028,Jingzhou,CN,Shanghai,TRUE,FALSE,TRUE,lonely
Asia,5/06/2005,9/07/2005,Brittany Nelson,Ronald Wong PhD,18.51957,73.85535,Pune,IN,Kolkata,TRUE,TRUE,TRUE,evasive
Asia,8/09/1985,28/10/1985,Sheila French,Shelley Sheppard,35.815,139.6853,Shimotoda,JP,Tokyo,FALSE,FALSE,TRUE,hostile
Asia,29/02/2012,29/03/2012,Linda Delacruz,Ray Hall,30.35028,112.19028,Jingzhou,CN,Shanghai,FALSE,TRUE,TRUE,silent
Asia,6/06/2019,18/07/2019,Daniel Cunningham,Jeffrey Johnson,34.85,117.33333,Taozhuang,CN,Shanghai,FALSE,TRUE,TRUE,unhappy
Asia,16/11/2008,23/12/2008,Paige Avila,Lacey Brown,34.56861,105.89333,Beidao,CN,Shanghai,FALSE,FALSE,TRUE,friendly
Asia,26/12/1991,23/01/1992,Dr. Susan Clements MD,Bryce Alvarado,32.65246,51.67462,Isfahan,IR,Tehran,FALSE,FALSE,TRUE,over-complimenting
Asia,22/07/1988,3/08/1988,Nicholas Marks,Alison Peterson,46.51872,86.00214,Hoxtolgay,CN,Urumqi,FALSE,TRUE,FALSE,scared
Asia,28/01/1998,10/02/1998,Brittany Smith,Shelly Espinoza,65.93381,111.4834,Aykhal,RU,Yakutsk,FALSE,TRUE,TRUE,silent
Asia,28/12/2014,10/02/2015,Dr. Alison Bailey MD,Matthew Young,58.7002,59.4839,Kachkanar,RU,Yekaterinburg,FALSE,TRUE,TRUE,silent
Asia,22/08/2000,6/10/2000,Justin Logan,Jacob Salazar,35.48199,137.02166,Minokamo,JP,Tokyo,FALSE,TRUE,TRUE,unhappy
Asia,11/03/1987,20/03/1987,Taylor Carlson,Angel Payne,13.8196,100.04427,Nakhon Pathom,TH,Bangkok,FALSE,TRUE,FALSE,panicking
Asia,18/08/2011,18/09/2011,Toni Pena,Timothy Davis,29.21399,78.95693,Kashipur,IN,Kolkata,FALSE,TRUE,TRUE,over-complimenting
Asia,3/08/1986,9/09/1986,Ryan Lewis,Mr. Shannon Sharp,15.5439,73.7553,Calangute,IN,Kolkata,FALSE,FALSE,TRUE,tense
Asia,14/02/2012,25/03/2012,Travis Fuller,Cathy Durham,30.21121,74.4818,Malaut,IN,Kolkata,FALSE,FALSE,TRUE,talkative
Asia,18/02/2017,26/03/2017,Jermaine Kennedy,Kristen Peterson,29.21399,78.95693,Kashipur,IN,Kolkata,FALSE,FALSE,TRUE,insulting
Asia,24/07/2006,25/08/2006,Sean Miller,Laura Oconnor,36,139.55722,Okegawa,JP,Tokyo,FALSE,TRUE,TRUE,confessing
Asia,2/08/1996,24/08/1996,Dale Ramirez,James Brock,12.1277,78.15794,Dharmapuri,IN,Kolkata,FALSE,TRUE,TRUE,injured
Asia,26/04/1991,28/04/1991,Joshua Taylor,Brian Torres,44.35056,142.45778,Nayoro,JP,Tokyo,FALSE,TRUE,TRUE,happy
Asia,27/04/1999,4/05/1999,Melissa Ward,Kathleen Munoz,0.51667,101.44167,Pekanbaru,ID,Jakarta,FALSE,FALSE,TRUE,complaining
Asia,18/05/1991,8/07/1991,Heather Gross,Michelle Green,36.64852,51.49621,Nowshahr,IR,Tehran,FALSE,TRUE,TRUE,over-complimenting
Asia,3/05/1999,26/06/1999,Luke Benson,Rachel Barnes,40.49748,44.7662,Hrazdan,AM,Yerevan,FALSE,TRUE,TRUE,worried
Asia,14/01/2009,23/01/2009,Debra May,Natalie Jordan,13.65805,102.56365,Paoy Paet,KH,Phnom Penh,FALSE,TRUE,TRUE,injured
Asia,23/01/1987,9/03/1987,Jenna Berger,Dana Parker,32.65246,51.67462,Isfahan,IR,Tehran,TRUE,TRUE,TRUE,talkative
Asia,24/01/2008,11/02/2008,William Johnson,Carrie Boone,36.20389,127.08472,Nonsan,KR,Seoul,FALSE,TRUE,TRUE,panicking
Asia,15/04/2011,19/05/2011,Kelly Ellis,Denise Johnson,16.0567,103.65309,Roi Et,TH,Bangkok,FALSE,TRUE,TRUE,silent
Asia,21/07/2012,6/09/2012,Angela Mathis,Julia Cannon,36.6009,126.665,Hongseong,KR,Seoul,FALSE,TRUE,TRUE,scared
Asia,8/06/1985,27/07/1985,Steven Kennedy,Timothy Maldonado,36.20389,127.08472,Nonsan,KR,Seoul,FALSE,TRUE,TRUE,hostile
Asia,1/12/2006,10/12/2006,Marie Ortiz DDS,Brian Hickman,14.53767,46.83187,Ataq,YE,Aden,FALSE,TRUE,TRUE,oblivious
Asia,1/03/1986,13/04/1986,Sarah Wagner,Erik Gibson,15.79408,104.1451,Yasothon,TH,Bangkok,FALSE,TRUE,TRUE,scared
Asia,28/07/1990,4/08/1990,Natalie Johnson,Austin Williams,29.98869,122.20488,Zhoushan,CN,Shanghai,TRUE,TRUE,TRUE,fleeing
Asia,17/11/2020,1/01/2021,Jessica Hodges,Alan Ford,20.88098,75.11937,Parola,IN,Kolkata,FALSE,TRUE,TRUE,tense
Asia,25/02/1999,4/04/1999,Brandon Fox,Beth Cuevas,46.08333,122.08333,Ulanhot,CN,Shanghai,FALSE,TRUE,TRUE,insulting
Asia,15/01/2003,21/02/2003,Leon Clark,Jessica Joseph,24.28859,116.11768,Meizhou,CN,Shanghai,FALSE,TRUE,TRUE,happy
Asia,14/05/1995,19/05/1995,Matthew Robles,Richard Green,18.18158,76.03889,Osmanabad,IN,Kolkata,FALSE,TRUE,TRUE,unhappy
Asia,8/03/1992,23/04/1992,Sharon Beard,Adam Irwin,5.4709,100.24529,Batu Feringgi,MY,Kuala Lumpur,TRUE,FALSE,TRUE,injured
Asia,17/01/1990,27/02/1990,Brittney Nelson,Todd Garcia,12.37169,123.62494,Masbate,PH,Manila,FALSE,FALSE,TRUE,sad
Asia,30/05/2007,12/07/2007,Leslie Haynes,Carrie Boone,23.18,88.58,Aistala,IN,Kolkata,FALSE,TRUE,FALSE,lonely
Asia,6/11/1998,15/11/1998,Sydney Lewis,Hannah Palmer,37.1759,128.9889,T‚Äôaebaek,KR,Seoul,FALSE,TRUE,TRUE,oblivious
Asia,31/08/2008,13/09/2008,Melanie Wilson,Christopher Sandoval,10.20898,123.758,Naga,PH,Manila,FALSE,TRUE,TRUE,insulting
Asia,6/11/2007,13/12/2007,Jody Edwards,Michael Riddle,28.71271,77.656,Pilkhua,IN,Kolkata,FALSE,TRUE,FALSE,worried
Asia,30/03/1992,24/04/1992,Sarah Olsen,Christina Krause,14.46693,75.92694,Davangere,IN,Kolkata,FALSE,TRUE,TRUE,fleeing
Asia,30/04/2010,21/06/2010,Mackenzie Mejia,Jose Hunt,36.21544,65.93249,Sar-e Pul,AF,Kabul,FALSE,FALSE,TRUE,paranoid
Asia,26/04/1998,16/05/1998,Melanie Chang,Vanessa Chapman,34.5624,38.28402,Tadmur,SY,Damascus,FALSE,TRUE,TRUE,tense
Asia,9/10/2008,2/11/2008,Suzanne Gordon,John Turner,43.41949,77.0202,Otegen Batyra,KZ,Almaty,FALSE,TRUE,TRUE,unhappy
Asia,4/05/1992,7/05/1992,Laura Cruz,Misty Young,17.34769,78.55757,Lal Bahadur Nagar,IN,Kolkata,FALSE,TRUE,TRUE,evasive
Asia,27/11/2021,4/12/2021,Tonya Anderson,William Knight,34.86472,117.55417,Zaozhuang,CN,Shanghai,FALSE,FALSE,TRUE,sad
Asia,19/03/1995,27/04/1995,Angel Taylor,Ashley Carr,27.0174,49.62251,Al Jubayl,SA,Riyadh,FALSE,TRUE,TRUE,happy
Asia,16/05/1991,10/06/1991,Kimberly Smith DDS,John Carlson,37.65181,120.33063,Longgang,CN,Shanghai,TRUE,FALSE,TRUE,accusatory
Asia,19/01/2019,7/03/2019,Hector Osborne,Courtney Thompson,46.08333,122.08333,Ulanhot,CN,Shanghai,FALSE,FALSE,TRUE,talkative
Asia,12/01/2001,24/01/2001,Edward Sampson,Cristina Reynolds,23.1959,86.51499,Kenda,IN,Kolkata,FALSE,FALSE,TRUE,over-complimenting
Asia,27/01/2004,1/02/2004,Deanna Estrada,Anita Gray,27.0174,49.62251,Al Jubayl,SA,Riyadh,FALSE,FALSE,TRUE,happy
Asia,7/10/2005,13/11/2005,Karen Brown,Sonia Mcdaniel,58.7002,59.4839,Kachkanar,RU,Yekaterinburg,FALSE,TRUE,TRUE,worried
Asia,18/11/1999,1/12/1999,Kayla Stafford,Joshua Curtis,-7.73379,113.69785,Besuki,ID,Jakarta,FALSE,FALSE,TRUE,paranoid
Asia,17/05/1986,25/05/1986,Anthony Farrell,Daniel Moore,12.95629,78.27539,Robertsonpet,IN,Kolkata,FALSE,TRUE,TRUE,happy
Asia,20/01/1988,2/02/1988,Katrina Jackson,Rebecca Snyder MD,26.2649,81.54855,Jais,IN,Kolkata,FALSE,TRUE,TRUE,insulting
Asia,13/05/1992,9/07/1992,Hannah Collier,Jeffery Lee,24.81757,84.63445,Rafiganj,IN,Kolkata,FALSE,TRUE,TRUE,scared
Asia,18/06/1996,3/08/1996,Sharon Garcia,Cassidy Brown,26.32293,91.00632,Barpeta,IN,Kolkata,TRUE,FALSE,TRUE,fleeing
Asia,30/12/2008,16/01/2009,Scott Gomez,Dr. Gregory Gibson,30.21121,74.4818,Malaut,IN,Kolkata,FALSE,TRUE,TRUE,confessing
Asia,19/01/1993,19/02/1993,John Lawson,Taylor Robinson,30.21121,74.4818,Malaut,IN,Kolkata,TRUE,FALSE,TRUE,insulting
Asia,12/01/2009,2/03/2009,Elizabeth Mcintosh,Denise Kramer,36.75965,137.36215,Namerikawa,JP,Tokyo,FALSE,FALSE,TRUE,accusatory
Asia,21/05/2009,21/06/2009,Victoria White,David Zamora,47.46657,84.87144,Zaysan,KZ,Almaty,FALSE,FALSE,TRUE,complaining
Asia,23/11/2016,24/12/2016,Daniel Mendez,Austin Summers,36.6009,126.665,Hongseong,KR,Seoul,FALSE,TRUE,TRUE,injured
Asia,16/09/1994,23/09/1994,Ricky Banks,Megan Livingston,35.20889,111.73861,Changzhi,CN,Shanghai,FALSE,FALSE,TRUE,scared
Asia,14/08/2014,20/09/2014,Mrs. Angela Ross DDS,Garrett Moore,12.04161,75.35927,Talipparamba,IN,Kolkata,FALSE,TRUE,TRUE,complaining
Asia,14/03/2004,18/04/2004,Timothy Collier,Jennifer Cook,31.92923,34.86563,Ramla,IL,Jerusalem,FALSE,TRUE,TRUE,injured
Asia,31/08/2004,16/10/2004,Casey Shields,Kerry Buck,35.95664,36.7138,Binnish,SY,Damascus,TRUE,FALSE,TRUE,confessing
Asia,5/12/1988,25/12/1988,Joshua Carter,Amanda Brown,34.85,117.33333,Taozhuang,CN,Shanghai,FALSE,TRUE,TRUE,fleeing
Asia,31/08/2016,12/10/2016,Laurie Brooks,Holly Chapman,58.7002,59.4839,Kachkanar,RU,Yekaterinburg,FALSE,FALSE,FALSE,unhappy
Asia,10/01/1990,11/02/1990,Robert Horn,Leslie Curtis,31.39547,34.75699,Rahat,IL,Jerusalem,FALSE,TRUE,TRUE,tense
Asia,11/10/2019,22/10/2019,Mr. Kyle Wise MD,Eric French,25.80565,68.49143,Bhit Shah,PK,Karachi,TRUE,TRUE,TRUE,happy
Asia,7/07/2000,31/07/2000,Robert Love,Adam Smith,51.4781,57.3552,Kuvandyk,RU,Yekaterinburg,FALSE,TRUE,TRUE,injured
Asia,16/04/2015,16/05/2015,Tony Campbell,William Joseph,27.85,112.9,Xiangtan,CN,Shanghai,TRUE,TRUE,TRUE,oblivious
Asia,5/08/2010,7/09/2010,Stephanie Harris,Ashley Davis,26.76628,83.36889,Gorakhpur,IN,Kolkata,FALSE,TRUE,TRUE,oblivious
Asia,6/04/2018,23/05/2018,Mark Jordan,Jeffrey Johnson,27.52948,68.75915,Khairpur Mir‚Äôs,PK,Karachi,FALSE,FALSE,TRUE,hostile
Asia,16/10/1988,20/11/1988,Brandon Hernandez,Stephen Mills,30.81383,75.16878,Moga,IN,Kolkata,FALSE,TRUE,TRUE,paranoid
Asia,10/11/2000,17/12/2000,Jeffrey Mitchell,Valerie Griffin,33.3213,130.94098,Hita,JP,Tokyo,FALSE,FALSE,TRUE,oblivious
Asia,18/01/1986,26/01/1986,John Palmer,Amy Bray,26.44931,91.61356,Rangia,IN,Kolkata,TRUE,FALSE,TRUE,confessing
Asia,8/12/2008,11/01/2009,Brian Murphy,Nicole Scott,-7.57897,112.23109,Diwek,ID,Jakarta,FALSE,TRUE,TRUE,hostile
Asia,29/01/1998,19/02/1998,Robin Sanders,Richard Harris,33.86419,48.26258,Aleshtar,IR,Tehran,FALSE,FALSE,TRUE,insulting
Asia,6/04/1995,13/04/1995,Christina Newman,Hannah Lindsey,16.68911,98.50893,Myawadi,MM,Yangon,FALSE,TRUE,FALSE,silent
Asia,18/11/2015,1/01/2016,Stephanie Brady,Michelle Green,21.53889,71.57737,Gariadhar,IN,Kolkata,FALSE,FALSE,TRUE,fleeing
Asia,1/04/2005,26/05/2005,Kelsey Compton,Tanya Conley,32.55531,76.12647,Chamba,IN,Kolkata,FALSE,FALSE,TRUE,sad
Asia,24/09/2004,12/11/2004,Sharon Davis,Patricia Hall,13.44581,101.18445,Phanat Nikhom,TH,Bangkok,FALSE,FALSE,TRUE,complaining
Asia,2/10/2015,3/10/2015,Jennifer Choi,Beth Cuevas,34.61667,135.6,Yao,JP,Tokyo,FALSE,TRUE,FALSE,tense
Asia,9/06/2009,20/06/2009,Jessica Anderson,Garrett Martinez,12.04161,75.35927,Talipparamba,IN,Kolkata,FALSE,FALSE,TRUE,scared
Asia,7/11/2014,5/01/2015,Deborah Atkins,Susan Thomas,35.48199,137.02166,Minokamo,JP,Tokyo,FALSE,TRUE,TRUE,complaining
Asia,17/07/2011,6/08/2011,Amanda Fleming,Emily Mccoy,27.9247,78.40102,Chharra,IN,Kolkata,FALSE,FALSE,TRUE,injured
Asia,25/09/2004,4/10/2004,Meagan Wilson,Linda Finley,38.40917,112.73333,Xinzhou,CN,Shanghai,FALSE,TRUE,TRUE,evasive
Asia,12/09/2009,21/09/2009,Sara Chambers,Mark Williams,25.80565,68.49143,Bhit Shah,PK,Karachi,FALSE,FALSE,TRUE,worried
Asia,13/11/2021,7/12/2021,Lindsay Hansen,Ronnie Anthony,-3.5403,118.9707,Majene,ID,Makassar,FALSE,TRUE,FALSE,silent
Asia,16/12/1989,3/01/1990,Nicholas Thompson,Shawn Huang,32.50611,120.14278,Jiangyan,CN,Shanghai,FALSE,FALSE,TRUE,silent
Asia,4/05/2010,8/06/2010,Kayla White,Jessica Duran,4.02219,101.02083,Teluk Intan,MY,Kuala Lumpur,FALSE,TRUE,TRUE,tense
Asia,17/05/2009,30/05/2009,Devin Dean,Ronnie Anthony,32.50611,120.14278,Jiangyan,CN,Shanghai,FALSE,FALSE,TRUE,injured
Asia,22/06/2013,25/06/2013,Amanda James,Holly Chapman,31.78336,35.23388,East Jerusalem,PS,Hebron,FALSE,FALSE,TRUE,confessing
Asia,28/08/1988,6/09/1988,Melanie Moore,Jason Mccarthy,44.35056,142.45778,Nayoro,JP,Tokyo,FALSE,TRUE,TRUE,over-complimenting
Asia,1/04/2006,24/04/2006,Karen Brown,Kathy Meadows,31.82539,72.54064,Sillanwali,PK,Karachi,FALSE,TRUE,TRUE,complaining
Asia,28/03/1987,1/04/1987,Thomas Mathews,Gabriel Jones,28.92694,78.23456,Bachhraon,IN,Kolkata,FALSE,TRUE,TRUE,sad
Asia,20/01/2008,13/03/2008,Matthew Edwards,Andrew Miranda,35.8,137.23333,Gero,JP,Tokyo,FALSE,TRUE,TRUE,paranoid
Asia,3/03/2007,15/03/2007,Lisa Robinson,Justin Edwards,26.2649,81.54855,Jais,IN,Kolkata,FALSE,TRUE,TRUE,complaining
Asia,5/11/1992,16/11/1992,Hailey Patterson,William Zuniga,13.8196,100.04427,Nakhon Pathom,TH,Bangkok,FALSE,TRUE,TRUE,confessing
Asia,30/03/2005,12/05/2005,Joanna Jones,Megan West,36.53333,136.61667,Nonoichi,JP,Tokyo,FALSE,FALSE,TRUE,talkative
Asia,29/03/2002,22/05/2002,Michael Johnston,Jennifer George,27.9247,78.40102,Chharra,IN,Kolkata,FALSE,TRUE,TRUE,scared
Asia,14/05/2020,16/06/2020,Victoria Flowers,Jordan Torres,2.2139,102.3278,Kampung Ayer Molek,MY,Kuala Lumpur,FALSE,FALSE,FALSE,paranoid
Asia,17/06/1992,3/07/1992,George Nielsen,Elizabeth Cooper,23.02677,113.13148,Foshan,CN,Shanghai,FALSE,FALSE,TRUE,complaining
Asia,10/05/2006,30/06/2006,Megan Ball MD,Edward Anderson,35.82756,137.95378,Ina,JP,Tokyo,FALSE,FALSE,TRUE,happy
Asia,20/11/2010,23/11/2010,Sara Ross,Misty Young,44.85278,65.50917,Kyzylorda,KZ,Qyzylorda,TRUE,TRUE,TRUE,silent
Asia,12/04/2003,16/04/2003,Mr. Anthony Miller MD,Jimmy Patel,-6.48167,106.85417,Cibinong,ID,Jakarta,TRUE,FALSE,TRUE,lonely
Asia,15/12/1997,24/01/1998,Eric Davis,Matthew Brown,41.09246,45.36561,Qazax,AZ,Baku,FALSE,TRUE,TRUE,friendly
Asia,17/02/2017,15/03/2017,Derrick Phillips,David Harrington,27.85,112.9,Xiangtan,CN,Shanghai,FALSE,TRUE,TRUE,lonely
Asia,22/11/2013,26/12/2013,Timothy Mason,Brooke Crawford,54.48147,53.47103,Oktyabr‚Äôskiy,RU,Yekaterinburg,FALSE,TRUE,TRUE,fleeing
Asia,24/11/2014,30/11/2014,Rachel Rowland,Maurice Mccarthy,13.8196,100.04427,Nakhon Pathom,TH,Bangkok,FALSE,TRUE,TRUE,oblivious
Asia,13/12/2008,13/12/2008,Charles Patterson,Allen Baker,34.4833,136.84186,Toba,JP,Tokyo,FALSE,TRUE,TRUE,talkative
Asia,16/01/1986,9/02/1986,Amanda Owens,Joseph Nguyen,22.4711,88.1453,Pujali,IN,Kolkata,FALSE,TRUE,TRUE,paranoid
Asia,7/02/2013,26/02/2013,Nicholas Robertson,Marie Hill,26.9423,68.11759,Tharu Shah,PK,Karachi,FALSE,TRUE,TRUE,hostile
Asia,8/06/1999,8/07/1999,Joshua Greer,Ronald Friedman,37.30553,120.82747,Zhuangyuan,CN,Shanghai,FALSE,TRUE,TRUE,complaining
Asia,6/07/1995,21/07/1995,Michael Rowland,David Wagner,31.64615,120.74221,Changshu City,CN,Shanghai,FALSE,TRUE,TRUE,insulting
Asia,30/05/2001,12/06/2001,Kyle Sutton,Mrs. Kristin Lopez MD,10.10649,76.35484,Alwaye,IN,Kolkata,TRUE,TRUE,TRUE,fleeing
